"","SHIP_ID","SHIPNAME","ship_type","points","first_date","last_date","LAT","LON","DATETIME","dest_lat","dest_lon","distance_meters"
"1",1960,"PALLAS GLORY","Tanker",848,"2016-12-16T08:25:04Z","2016-12-16T23:21:05Z",57.65783,11.75497,"2016-12-16T22:57:05Z",57.6508,11.71328,2603.41192403802
"2",2006,"KONYA","Cargo",4347,"2016-12-14T00:09:07Z","2016-12-20T11:11:06Z",55.72832,21.06178,"2016-12-15T16:17:06Z",55.72777,21.08245,1297.17385392188
"3",2764,"KAROLI","Cargo",1293,"2016-12-19T11:29:01Z","2016-12-20T11:11:02Z",54.5644,18.83774,"2016-12-19T12:55:01Z",54.54369,18.80568,3098.18940038824
"4",2929,"POLA MUROM","Cargo",674,"2016-12-13T11:31:04Z","2016-12-13T22:43:04Z",59.91764,30.021,"2016-12-13T22:41:04Z",59.92054,30.00686,852.445787262123
"5",2934,"POLA UGLICH","Cargo",1887,"2016-12-19T02:01:03Z","2016-12-20T11:11:04Z",59.91687,30.02371,"2016-12-19T02:05:04Z",59.9132,30.04201,1099.87852572029
"6",2962,"BOA BISON","Tug",4721,"2016-12-13T11:31:08Z","2016-12-20T10:59:07Z",54.52405,18.5547,"2016-12-16T00:03:07Z",54.52401,18.55471,4.49940374563181
"7",2968,"FURE FLADEN","Tanker",118,"2016-12-13T23:27:05Z","2016-12-14T01:47:05Z",57.65628,11.74772,"2016-12-14T01:15:05Z",57.65138,11.71893,1799.38981696384
"8",3049,"BESIKTAS ICELAND","Tanker",3963,"2016-12-13T11:31:05Z","2016-12-16T14:49:06Z",57.66349,11.77922,"2016-12-13T11:33:05Z",57.67393,11.7997,1684.42813551725
"9",3062,"ANGORA","Cargo",3608,"2016-12-15T08:31:06Z","2016-12-20T11:11:06Z",55.70655,20.80155,"2016-12-15T08:31:06Z",55.70835,20.81501,867.658220689811
"10",3162,"REINBEK","Cargo",542,"2016-12-13T11:31:04Z","2016-12-13T20:31:05Z",59.90187,30.09799,"2016-12-13T20:15:05Z",59.90487,30.08347,876.642437329822
"11",3338,"KERLI","Cargo",1225,"2016-12-15T17:33:02Z","2016-12-17T08:19:02Z",54.73725,18.97902,"2016-12-17T07:59:01Z",54.76132,18.98187,2685.70948317424
"12",3575,"HELT","Cargo",1016,"2016-12-15T21:13:02Z","2016-12-18T13:09:03Z",54.68167,20.16127,"2016-12-17T03:23:02Z",54.68575,20.22571,4171.68211754027
"13",3615,"FINNKRAFT","Cargo",1125,"2016-12-13T11:31:02Z","2016-12-20T11:11:02Z",54.6725,18.99983,"2016-12-13T22:31:02Z",54.79053,18.89155,14868.5700969393
"14",3636,"FINNHAWK","Cargo",751,"2016-12-16T06:27:04Z","2016-12-16T19:01:04Z",59.91904,30.01286,"2016-12-16T06:29:04Z",59.91375,30.03851,1547.68857829503
"15",5107,"AUTO BAY","Cargo",456,"2016-12-14T10:09:03Z","2016-12-14T17:43:05Z",59.90988,30.05801,"2016-12-14T17:35:04Z",59.91502,30.0328,1518.79684430855
"16",5381,"AURA","Tug",1171,"2016-12-18T05:27:06Z","2016-12-19T21:55:05Z",55.85232,20.83309,"2016-12-19T21:47:05Z",55.86265,20.81833,1474.02805606629
"17",5396,"RAMONA","Cargo",463,"2016-12-16T21:15:06Z","2016-12-17T12:41:04Z",57.65665,11.74505,"2016-12-17T12:05:05Z",57.6536,11.7282,1059.42317549725
"18",5558,"FINNTIDE","Cargo",436,"2016-12-20T02:37:03Z","2016-12-20T11:11:04Z",59.89004,30.15668,"2016-12-20T03:15:04Z",59.88737,30.17005,803.655567471999
"19",5567,"FINNWAVE","Cargo",877,"2016-12-15T02:57:04Z","2016-12-15T17:37:05Z",59.90972,30.06001,"2016-12-15T17:27:05Z",59.91424,30.03777,1339.27771476096
"20",5622,"FINNMILL","Cargo",1431,"2016-12-14T10:09:03Z","2016-12-15T09:59:04Z",59.91888,30.01486,"2016-12-15T09:55:04Z",59.92145,30.002,772.444371032367
"21",5628,"FINNPULP","Cargo",891,"2016-12-19T05:51:02Z","2016-12-20T11:11:02Z",54.67507,18.94194,"2016-12-19T06:23:02Z",54.66213,18.93311,1548.5787217859
"22",6046,"SEAGARD","Cargo",488,"2016-12-20T01:45:03Z","2016-12-20T11:11:04Z",59.91272,30.04566,"2016-12-20T01:55:04Z",59.90843,30.06649,1256.7932090467
"23",6065,"EIRA","Cargo",2356,"2016-12-16T01:55:03Z","2016-12-20T11:11:04Z",59.91333,30.043,"2016-12-19T14:47:04Z",59.9085,30.066,1391.67994842163
"24",6220,"PRIMA FORTUNA","Cargo",505,"2016-12-17T09:13:06Z","2016-12-18T02:55:05Z",55.71674,21.11054,"2016-12-18T00:43:06Z",55.72672,21.08698,1848.28737753979
"25",6223,"MERI","Cargo",4013,"2016-12-13T11:21:01Z","2016-12-16T15:15:07Z",54.4373,18.65869,"2016-12-16T12:55:07Z",54.45842,18.69403,3280.21260629561
"26",6333,"BALTICO","Tanker",3985,"2016-12-16T02:37:02Z","2016-12-19T05:05:02Z",54.45685,18.99749,"2016-12-19T03:19:02Z",54.78958,18.99259,37040.6803680806
"27",6338,"BONITO","Tanker",913,"2016-12-15T07:09:03Z","2016-12-16T13:57:02Z",54.63328,19.92887,"2016-12-16T13:53:03Z",54.66795,19.81384,8353.52950394486
"28",6349,"SUULA","Tanker",1619,"2016-12-18T21:15:02Z","2016-12-20T01:15:02Z",54.42691,18.92613,"2016-12-20T01:03:02Z",54.42949,18.95248,1730.35052930985
"29",6500,"LINDA","Cargo",339,"2016-12-15T12:49:06Z","2016-12-16T00:17:06Z",55.8541,20.839,"2016-12-15T12:57:06Z",55.83518,20.86139,2528.6602792876
"30",23788,"VTS HEL","Unspecified",403,"2016-12-14T10:09:01Z","2016-12-19T21:59:01Z",54.59999,18.8129,"2016-12-15T18:57:02Z",54.60001,18.81289,2.31789706632851
"31",23846,"VTS 2614900","Unspecified",1006,"2016-12-13T19:53:07Z","2016-12-16T23:25:07Z",54.52926,18.55957,"2016-12-16T23:23:07Z",54.52926,18.55957,0
"32",24030,"VTS GAOTEBORG","Unspecified",849,"2016-12-16T02:47:05Z","2016-12-20T11:11:05Z",57.69404,12.05877,"2016-12-19T12:55:04Z",57.69397,12.05863,11.4059236328496
"33",24344,"VTS BALTIYSK","Unspecified",3279,"2016-12-13T11:31:03Z","2016-12-20T08:01:02Z",54.62998,19.88548,"2016-12-20T07:59:02Z",54.62998,19.88548,0
"34",24345,"VTS 2734463","Unspecified",4735,"2016-12-13T11:31:04Z","2016-12-20T11:11:04Z",59.8646,30.47185,"2016-12-20T10:59:04Z",59.8646,30.47185,0
"35",24366,"VTS 2734488","Unspecified",4041,"2016-12-13T11:31:03Z","2016-12-20T11:11:02Z",54.89622,19.93811,"2016-12-20T11:07:04Z",54.89622,19.93811,0
"36",24369,"VTS 2734492","Unspecified",9481,"2016-12-13T11:31:04Z","2016-12-20T11:11:04Z",59.93639,30.22619,"2016-12-13T12:37:05Z",59.93667,30.22583,37.0753087839539
"37",24468,"VTS KLAIPEDA","Unspecified",267,"2016-12-18T13:55:06Z","2016-12-19T05:19:06Z",55.69013,21.13727,"2016-12-18T16:19:06Z",55.69002,21.13729,12.3092828318695
"38",24473,"VTS 2770110","Unspecified",4728,"2016-12-13T11:31:07Z","2016-12-20T11:11:06Z",55.72771,21.09569,"2016-12-20T10:59:06Z",55.72771,21.09569,0
"39",37523,"HELGE","Cargo",18,"2016-12-20T05:41:05Z","2016-12-20T06:17:06Z",57.98425,11.75003,"2016-12-20T06:13:05Z",57.99721,11.76468,1681.852592577
"40",73528,"SAR 111261105","Tug",31,"2016-12-20T08:19:07Z","2016-12-20T09:11:07Z",54.67845,18.74161,"2016-12-20T08:27:01Z",54.59363,18.80848,10378.5911809838
"41",73551,"SAR 111265121","Tug",3,"2016-12-16T09:25:06Z","2016-12-16T09:29:05Z",57.60648,11.62348,"2016-12-16T09:25:06Z",57.67288,11.62489,7392.0916049049
"42",115307,"MELUSINE","Cargo",1173,"2016-12-14T19:13:06Z","2016-12-18T16:17:05Z",57.67873,11.7854,"2016-12-14T19:55:05Z",57.68228,11.83933,3233.92584096325
"43",117309,"VICTORINE","Cargo",427,"2016-12-19T17:07:05Z","2016-12-20T00:43:05Z",57.64971,11.71424,"2016-12-19T17:27:05Z",57.65609,11.7494,2211.3253448884
"44",118748,"WAASMUNSTER","Tanker",22,"2016-12-18T07:31:04Z","2016-12-18T08:15:04Z",57.95479,11.70541,"2016-12-18T07:57:05Z",57.96463,11.71845,1338.99922311158
"45",121733,"BF CARTAGENA","Cargo",2560,"2016-12-13T15:33:03Z","2016-12-15T17:53:05Z",59.90217,30.09717,"2016-12-15T17:37:05Z",59.90683,30.07483,1350.62060833795
"46",121902,"X-PRESS ETNA","Cargo",1129,"2016-12-19T14:55:03Z","2016-12-20T11:11:04Z",59.90613,30.07705,"2016-12-19T15:11:12Z",59.90249,30.09439,1049.32305953471
"47",122006,"IDUNA","Cargo",852,"2016-12-13T19:17:03Z","2016-12-20T10:59:07Z",54.70171,18.99737,"2016-12-14T15:27:02Z",54.75998,18.99467,6488.90800389333
"48",122250,"WILSON SKY","Cargo",574,"2016-12-13T11:31:08Z","2016-12-15T17:17:06Z",54.67703,18.9902,"2016-12-13T22:35:02Z",55.69126,21.13543,177008.334000514
"49",122557,"HUGIN EXPLORER","Tug",33,"2016-12-14T17:29:05Z","2016-12-16T16:57:06Z",57.94002,11.68876,"2016-12-14T17:45:05Z",57.95451,11.70733,1950.73843455405
"50",122562,"THURKUS","Cargo",1094,"2016-12-15T04:27:02Z","2016-12-16T14:43:08Z",54.54402,18.82845,"2016-12-16T12:55:01Z",54.56498,18.859,3055.12061257243
"51",122649,"SOLONG","Cargo",52,"2016-12-14T01:39:03Z","2016-12-14T02:29:04Z",59.91267,30.04487,"2016-12-14T01:45:04Z",59.91005,30.05787,781.943370952598
"52",123061,"VLADIMIR","Cargo",2211,"2016-12-17T06:27:04Z","2016-12-18T19:23:04Z",59.90915,30.06179,"2016-12-17T06:37:04Z",59.90486,30.08275,1263.62379555297
"53",123147,"ARETHOUSA","Cargo",4329,"2016-12-14T10:33:02Z","2016-12-20T11:11:02Z",54.52544,18.99381,"2016-12-14T10:35:02Z",54.51316,18.98008,1629.6349024777
"54",123222,"WMS GRONINGEN","Cargo",1797,"2016-12-18T14:25:03Z","2016-12-19T20:43:04Z",59.91378,30.03969,"2016-12-19T20:37:04Z",59.91872,30.01553,1455.9871150599
"55",123296,"DUKE 2","Tug",1349,"2016-12-17T21:37:03Z","2016-12-20T11:11:02Z",55.04501,20.0843,"2016-12-18T01:49:02Z",55.0174,20.24331,10600.2873702186
"56",123303,"HEINRICH SCHEPERS","Cargo",1654,"2016-12-14T14:31:03Z","2016-12-15T18:07:05Z",59.90049,30.1049,"2016-12-15T17:47:04Z",59.90443,30.08541,1173.08354400607
"57",123774,"NORDIC HAMBURG","Cargo",498,"2016-12-17T14:01:03Z","2016-12-17T22:17:04Z",59.9152,30.03243,"2016-12-17T14:05:04Z",59.91153,30.05079,1103.03572324703
"58",124152,"VARVARA","Cargo",14,"2016-12-13T11:31:04Z","2016-12-13T11:43:04Z",59.91079,30.05415,"2016-12-13T11:31:04Z",59.91301,30.04302,668.498608507527
"59",124278,"ASTRORUNNER","Cargo",660,"2016-12-13T11:31:05Z","2016-12-20T11:11:05Z",57.60032,11.65497,"2016-12-13T18:09:05Z",57.6118,11.62322,2284.40804530965
"60",124420,"LEENI","Tanker",421,"2016-12-19T18:53:05Z","2016-12-20T11:11:06Z",55.72846,21.00928,"2016-12-19T19:35:06Z",55.72853,21.04139,2012.85257225897
"61",124457,"EMSRUNNER","Cargo",3210,"2016-12-13T11:31:07Z","2016-12-20T11:11:06Z",55.65417,21.15783,"2016-12-18T06:23:06Z",55.65434,21.158,21.7284183468692
"62",124538,"BEATA","Cargo",782,"2016-12-15T13:41:03Z","2016-12-16T19:13:02Z",54.6795,19.80137,"2016-12-16T15:31:02Z",55.13744,19.81967,50991.0976068189
"63",124748,"KAPRIFOL","Tanker",80,"2016-12-16T10:27:06Z","2016-12-17T11:17:06Z",55.72542,21.09317,"2016-12-16T11:27:07Z",55.71477,21.10939,1561.98095386701
"64",124752,"TOLLUND","Cargo",522,"2016-12-13T11:31:03Z","2016-12-17T19:47:01Z",54.66673,19.819,"2016-12-17T16:23:02Z",54.78199,18.99543,54477.9541958991
"65",124887,"PETER THE GREAT","Tug",1352,"2016-12-15T03:41:03Z","2016-12-20T11:11:02Z",54.96026,20.2185,"2016-12-17T12:47:02Z",54.96758,20.22197,844.495083596288
"66",125326,"BLUEBILL","Cargo",2526,"2016-12-18T15:21:03Z","2016-12-20T11:11:04Z",59.90845,30.0658,"2016-12-18T16:49:04Z",59.90621,30.07703,674.587266415356
"67",125380,"PIRITA","Cargo",900,"2016-12-13T11:31:04Z","2016-12-14T02:29:04Z",59.87837,30.22568,"2016-12-14T00:43:04Z",59.87857,30.22628,40.2388934773966
"68",125418,"MERITUS","Tug",2493,"2016-12-15T04:13:02Z","2016-12-18T15:25:02Z",54.95612,20.21144,"2016-12-17T13:57:02Z",54.95604,20.21149,9.46168269568734
"69",125721,"MERITA","Cargo",227,"2016-12-17T12:09:02Z","2016-12-20T02:49:03Z",54.67559,19.80014,"2016-12-19T22:13:02Z",55.10017,19.80171,47264.1362994666
"70",126010,"CRESTWAY","Tug",4772,"2016-12-13T11:21:01Z","2016-12-20T11:11:02Z",54.37539,18.65903,"2016-12-14T19:59:02Z",54.37536,18.65902,3.40194878598461
"71",130867,"SELENE PRAHM","Cargo",743,"2016-12-14T10:09:01Z","2016-12-15T07:41:07Z",54.37166,18.664,"2016-12-15T03:13:01Z",54.38306,18.66144,1279.85104207568
"72",132427,"PHOENIX II","Cargo",950,"2016-12-14T10:09:01Z","2016-12-20T03:35:02Z",54.45469,18.99999,"2016-12-19T19:03:01Z",54.67082,19.80477,57244.9000906938
"73",132925,"CONTAINERSHIPS 6","Cargo",280,"2016-12-13T17:05:06Z","2016-12-14T02:29:06Z",55.69683,21.12467,"2016-12-13T18:11:07Z",55.67983,21.1375,2056.56449764007
"74",134088,"SEALING","Tanker",811,"2016-12-17T18:33:07Z","2016-12-18T22:05:06Z",55.73785,20.86011,"2016-12-18T21:57:05Z",55.73885,20.83035,1868.37441365524
"75",142957,"PATRICIA ESSBERGER","Tanker",795,"2016-12-14T00:15:03Z","2016-12-15T12:35:03Z",54.63329,19.89349,"2016-12-15T12:15:03Z",54.65217,19.85804,3103.55263645035
"76",144106,"NORDIC PHILIP","Cargo",807,"2016-12-18T10:51:03Z","2016-12-20T11:01:03Z",54.63322,19.89455,"2016-12-19T07:47:02Z",54.63261,19.91726,1464.85150978237
"77",144450,"BALTIC AMBITION","Tanker",2309,"2016-12-18T02:55:03Z","2016-12-19T17:49:04Z",59.91253,30.0457,"2016-12-19T17:41:04Z",59.91715,30.02296,1369.21835806734
"78",144628,"ARK FORWARDER","Cargo",1085,"2016-12-13T17:41:06Z","2016-12-17T14:57:04Z",57.67988,11.81698,"2016-12-14T02:29:07Z",57.61075,11.62227,13920.1633069232
"79",145002,"CEMSOL","Cargo",1679,"2016-12-16T04:02:32Z","2016-12-18T15:53:06Z",55.81088,20.8829,"2016-12-18T15:33:07Z",55.82241,20.86578,1671.50326853927
"80",145203,"VITIM","Cargo",2504,"2016-12-13T11:21:01Z","2016-12-20T11:11:02Z",54.45097,18.99401,"2016-12-15T04:43:02Z",55.74082,20.80078,184002.725352148
"81",145641,"RUTH","Cargo",502,"2016-12-20T01:27:03Z","2016-12-20T11:11:04Z",59.91788,30.0202,"2016-12-20T01:29:04Z",59.91236,30.0471,1621.99050296228
"82",145692,"HANNA","Cargo",483,"2016-12-13T11:31:05Z","2016-12-20T11:11:05Z",57.6785,11.80817,"2016-12-13T14:45:05Z",57.66417,11.7795,2336.16949717552
"83",145926,"NAVI BALTIC","Cargo",1322,"2016-12-15T05:37:06Z","2016-12-17T01:59:06Z",55.72889,21.0307,"2016-12-15T06:21:07Z",55.72868,21.05503,1525.31065279894
"84",145981,"BF FORTALEZA","Cargo",1159,"2016-12-19T14:25:03Z","2016-12-20T11:11:04Z",59.90128,30.1009,"2016-12-19T14:47:04Z",59.8981,30.11638,933.914734458693
"85",146036,"MAUREEN S","Cargo",429,"2016-12-17T05:51:06Z","2016-12-19T06:07:06Z",55.71506,21.11333,"2016-12-19T04:53:06Z",55.72418,21.09668,1456.20721963587
"86",146069,"SPANACO FIDELITY","Cargo",299,"2016-12-13T11:31:07Z","2016-12-20T01:05:06Z",55.71562,21.11,"2016-12-19T23:19:14Z",55.72241,21.09879,1032.16263193324
"87",146097,"WILHELM","Cargo",900,"2016-12-13T11:31:04Z","2016-12-14T02:29:04Z",59.89294,30.22716,"2016-12-13T12:07:05Z",59.89277,30.2269,23.8518981407892
"88",146140,"WILSON SUND","Cargo",521,"2016-12-18T09:55:03Z","2016-12-19T10:11:03Z",54.69806,20.45276,"2016-12-19T03:27:03Z",54.698,20.45283,8.05538183051189
"89",146336,"BELBEK","Cargo",2342,"2016-12-13T11:31:04Z","2016-12-15T10:09:05Z",59.91674,30.02597,"2016-12-15T10:07:04Z",59.92099,30.00478,1273.46590947794
"90",148345,"TEKOS","Tanker",9481,"2016-12-13T11:31:04Z","2016-12-20T11:11:04Z",59.88132,30.2292,"2016-12-13T22:13:05Z",59.8825,30.22828,141.051615468122
"91",148995,"BALTICA","Cargo",558,"2016-12-19T04:45:05Z","2016-12-19T14:59:06Z",57.6458,11.70329,"2016-12-19T14:47:05Z",57.63161,11.68412,1949.33559775101
"92",149302,"SEAEMPRESS","Tanker",3265,"2016-12-14T14:47:05Z","2016-12-17T04:35:05Z",57.65883,11.76585,"2016-12-14T15:11:05Z",57.66497,11.7813,1146.10612412832
"93",149310,"MURRAY STAR","Tanker",4638,"2016-12-13T11:21:01Z","2016-12-18T13:41:02Z",54.4347,18.93194,"2016-12-18T13:27:02Z",54.43482,18.95198,1297.59278597634
"94",149677,"PRINCESS ANASTASIA","Passenger",1102,"2016-12-16T04:33:04Z","2016-12-20T11:11:04Z",59.91652,30.02609,"2016-12-20T04:43:04Z",59.91213,30.04772,1302.21305061743
"95",150545,"RIG","Cargo",179,"2016-12-16T11:15:07Z","2016-12-17T04:17:06Z",55.72821,21.06735,"2016-12-16T12:55:06Z",55.71651,21.10869,2900.68026014042
"96",150705,"CATHARINA SCHULTE","Cargo",4721,"2016-12-13T11:31:08Z","2016-12-20T10:59:07Z",54.53396,18.55884,"2016-12-16T12:55:07Z",54.52669,18.56057,816.971733484648
"97",151630,"HENNEKE RAMBOW","Cargo",1221,"2016-12-17T12:35:04Z","2016-12-18T08:59:04Z",59.90027,30.10585,"2016-12-18T08:41:05Z",59.90508,30.08266,1400.91057648479
"98",151751,"SEAMARLIN","Tanker",450,"2016-12-13T11:31:08Z","2016-12-14T02:29:07Z",54.53357,18.5618,"2016-12-14T00:17:07Z",54.5336,18.56182,3.58072552092579
"99",151919,"KRISTIN","Fishing",152,"2016-12-16T11:07:05Z","2016-12-20T08:09:06Z",57.60079,11.64452,"2016-12-16T11:15:06Z",57.60241,11.81972,10451.4168453557
"100",151978,"VICTORIA","Fishing",2792,"2016-12-16T11:47:05Z","2016-12-20T11:11:05Z",57.74051,11.60408,"2016-12-16T11:47:05Z",57.74534,11.61588,883.516625123507
"101",152647,"SEABASS","Tanker",109,"2016-12-20T06:03:06Z","2016-12-20T11:11:06Z",55.76583,20.80123,"2016-12-20T06:05:06Z",55.77108,20.819,1256.91856974788
"102",152955,"WALTER HAMMANN","Cargo",3,"2016-12-20T10:57:05Z","2016-12-20T11:11:05Z",57.62553,11.68675,"2016-12-20T10:59:05Z",57.64769,11.7103,2838.05140073341
"103",153800,"AMANDA","Cargo",52,"2016-12-18T14:39:06Z","2016-12-19T15:13:05Z",57.94727,11.69585,"2016-12-19T14:47:05Z",57.93981,11.68622,1006.6608317694
"104",154769,"SCANDINAVIA","Tanker",2545,"2016-12-13T13:07:06Z","2016-12-17T08:59:05Z",57.67654,11.80368,"2016-12-16T12:55:08Z",57.68291,11.83696,2103.83481844875
"105",154872,"CHRISTINA MICHELLE","Fishing",302,"2016-12-13T11:31:08Z","2016-12-15T12:05:08Z",54.79703,18.43237,"2016-12-13T23:11:07Z",54.79712,18.42093,734.20514089996
"106",155138,"SUPPLIER","Tug",4285,"2016-12-13T11:31:05Z","2016-12-20T10:11:05Z",57.62333,11.80992,"2016-12-18T13:55:07Z",57.63467,11.82315,1488.39285851722
"107",155229,"TARNBRIS","Tanker",31,"2016-12-16T22:41:05Z","2016-12-17T13:45:05Z",57.93065,11.6717,"2016-12-16T22:57:05Z",57.95887,11.71158,3926.84679921595
"108",155585,"TENDER1","Cargo",2432,"2016-12-13T11:31:08Z","2016-12-20T11:11:05Z",57.64594,11.85902,"2016-12-14T02:23:08Z",57.61285,11.80496,4893.83934507296
"109",155711,"MAERSKMCKINNEYMOLLER","Cargo",2367,"2016-12-16T02:29:02Z","2016-12-19T11:01:02Z",54.45481,18.99613,"2016-12-19T09:41:02Z",54.78387,18.98247,36641.3710793647
"110",155712,"PACIFIC","Tanker",1418,"2016-12-16T13:09:06Z","2016-12-17T13:41:05Z",57.65675,11.7552,"2016-12-16T13:41:05Z",57.66047,11.77207,1086.63918359059
"111",156111,"TERNVAG","Tanker",1869,"2016-12-17T11:45:05Z","2016-12-18T19:39:06Z",57.63937,11.69865,"2016-12-17T11:55:04Z",57.64993,11.71384,1483.50788919045
"112",156114,"TERNHAV","Tanker",2915,"2016-12-14T16:25:05Z","2016-12-17T02:31:05Z",57.64655,11.7016,"2016-12-17T02:11:05Z",57.63419,11.68644,1645.90463488358
"113",156246,"MARINUS","Tanker",2196,"2016-12-15T01:07:02Z","2016-12-19T12:59:05Z",54.79558,18.92765,"2016-12-16T02:15:01Z",57.60408,11.61143,550007.416494016
"114",156323,"LEXUS","Tanker",537,"2016-12-16T01:19:05Z","2016-12-17T21:49:05Z",57.7485,11.62933,"2016-12-17T21:47:05Z",57.74821,11.60452,1474.17665248459
"115",156348,"STELLA NOVA","Fishing",4727,"2016-12-13T11:31:05Z","2016-12-20T11:11:05Z",57.7071,11.65927,"2016-12-17T00:03:05Z",57.70704,11.6593,6.91336061463033
"116",156373,"SCORPIUS","Tanker",869,"2016-12-13T11:31:05Z","2016-12-16T13:21:06Z",57.65641,11.74777,"2016-12-16T12:55:05Z",57.64573,11.70345,2895.24621131725
"117",156758,"ANGLIA SEAWAYS","Cargo",304,"2016-12-20T01:59:02Z","2016-12-20T11:11:02Z",54.79479,18.94468,"2016-12-20T02:03:01Z",54.78513,18.9612,1510.18230707738
"118",157040,"NAUTILUS","Tanker",1114,"2016-12-19T05:49:05Z","2016-12-20T04:13:05Z",57.6547,11.73835,"2016-12-20T03:53:12Z",57.65019,11.71205,1644.96473449794
"119",157057,"NEPTUNUS","Tanker",1464,"2016-12-13T11:21:01Z","2016-12-19T14:25:05Z",54.79743,18.89334,"2016-12-13T20:35:02Z",57.60192,11.63235,546950.420984384
"120",157062,"NIMBUS","Tanker",667,"2016-12-18T23:25:05Z","2016-12-20T00:59:05Z",57.60022,11.64145,"2016-12-18T23:31:05Z",57.60243,11.66862,1639.14338070304
"121",157070,"FREESIA SEAWAYS","Cargo",1420,"2016-12-13T11:31:05Z","2016-12-20T11:11:05Z",57.62766,11.68233,"2016-12-16T21:41:08Z",57.64865,11.70891,2822.77111731458
"122",157073,"BEGONIA SEAWAYS","Cargo",1300,"2016-12-14T16:15:06Z","2016-12-18T23:59:05Z",57.65199,11.72603,"2016-12-18T13:15:05Z",57.65701,11.75727,1942.71678639265
"123",157110,"MAGNOLIA SEAWAYS","Cargo",1445,"2016-12-13T11:31:05Z","2016-12-20T11:11:05Z",57.61156,11.66525,"2016-12-16T06:03:05Z",57.62883,11.68972,2413.29295254316
"124",158315,"R 355 TRINE LOUISE","Fishing",3236,"2016-12-15T04:17:07Z","2016-12-20T10:59:07Z",54.79691,18.41784,"2016-12-15T18:31:11Z",54.79491,18.41795,222.750866622424
"125",158394,"HANNE THERESA","Tanker",5,"2016-12-15T04:55:05Z","2016-12-15T05:03:05Z",57.60177,11.64016,"2016-12-15T05:01:05Z",57.60037,11.65048,634.971509071113
"126",158493,"STJARNVIK","Fishing",69,"2016-12-13T20:01:06Z","2016-12-13T22:17:05Z",57.65093,11.68491,"2016-12-13T21:59:05Z",57.63983,11.68664,1239.93697656605
"127",158628,"PETUNIA SEAWAYS","Cargo",1026,"2016-12-14T10:09:05Z","2016-12-17T17:09:05Z",57.65259,11.72198,"2016-12-17T16:53:05Z",57.64103,11.69722,1957.43782210047
"128",158740,"PRIMULA SEAWAYS","Cargo",1558,"2016-12-15T18:03:06Z","2016-12-19T23:09:04Z",57.63254,11.69205,"2016-12-15T18:15:07Z",57.65028,11.71538,2414.94735894293
"129",158750,"R 222 BORNOE","Fishing",16,"2016-12-14T16:11:09Z","2016-12-15T00:07:07Z",54.79729,18.41826,"2016-12-14T23:59:07Z",54.79617,18.42855,672.01068917785
"130",159287,"FICARIA SEAWAYS","Cargo",3228,"2016-12-15T05:53:07Z","2016-12-20T11:11:05Z",57.65739,11.75459,"2016-12-15T17:01:06Z",57.65243,11.72356,1928.79886478893
"131",159418,"BIRTHE BRES","Cargo",1551,"2016-12-14T19:09:05Z","2016-12-18T11:07:05Z",57.66332,11.77958,"2016-12-14T19:55:05Z",57.67889,11.81503,2730.90748320524
"132",159543,"SELANDIA SWAN","Tanker",762,"2016-12-16T01:13:03Z","2016-12-17T11:43:02Z",54.63252,19.90066,"2016-12-16T01:47:03Z",54.63334,19.92978,1878.51166096737
"133",159701,"AALBORG","Tanker",1978,"2016-12-13T11:31:05Z","2016-12-20T08:21:04Z",57.60052,11.6314,"2016-12-14T13:45:06Z",57.6015,11.69333,3695.50638618019
"134",159706,"COPENHAGEN","Tanker",40,"2016-12-15T19:13:05Z","2016-12-17T00:13:06Z",57.92383,11.62883,"2016-12-15T19:19:05Z",57.92619,11.6538,1499.26971210664
"135",181427,"MISANA","Cargo",956,"2016-12-19T01:43:04Z","2016-12-19T17:59:04Z",59.91617,30.02817,"2016-12-19T01:45:04Z",59.912,30.04833,1217.02062076226
"136",181730,"HVITANES","Cargo",446,"2016-12-13T11:31:04Z","2016-12-13T18:55:04Z",59.91454,30.03516,"2016-12-13T18:49:05Z",59.91746,30.02093,858.004960683865
"137",181746,"VINGA SAFIR","Tanker",3225,"2016-12-13T11:31:05Z","2016-12-20T11:11:05Z",57.60564,11.60405,"2016-12-13T16:43:06Z",57.60131,11.66084,3421.20971365283
"138",181857,"KAPITAN GERASHCHENKO","Fishing",3382,"2016-12-13T11:31:08Z","2016-12-18T11:43:02Z",54.53149,18.68513,"2016-12-18T09:53:07Z",54.53154,18.70719,1424.94786640224
"139",182321,"NORTHERN OCEAN","Tanker",2441,"2016-12-17T20:45:05Z","2016-12-20T11:11:05Z",57.61015,11.60678,"2016-12-17T20:47:04Z",57.61041,11.62854,1297.89551427155
"140",182333,"TRADER BULK","Cargo",151,"2016-12-19T03:03:05Z","2016-12-19T18:29:06Z",57.60003,11.65679,"2016-12-19T03:19:05Z",57.60091,11.68952,1954.70889975683
"141",182341,"SILVER PEARL","Cargo",3937,"2016-12-15T15:19:03Z","2016-12-18T09:07:04Z",59.91338,30.04178,"2016-12-15T15:29:04Z",59.90694,30.07326,1897.55853612624
"142",182351,"FURE NORD","Tanker",1378,"2016-12-19T09:35:06Z","2016-12-20T10:59:05Z",57.68709,11.87123,"2016-12-20T10:11:05Z",57.67256,11.79428,4857.06256244064
"143",182353,"EYSTNES","Cargo",1134,"2016-12-19T14:51:03Z","2016-12-20T11:11:04Z",59.91605,30.02825,"2016-12-19T14:55:04Z",59.91299,30.04387,935.846782969346
"144",182358,"FRANKLIN","Tug",2935,"2016-12-16T07:03:05Z","2016-12-20T11:11:05Z",57.74832,11.61463,"2016-12-16T07:05:06Z",57.74839,11.63724,1343.15606282205
"145",182370,"NAVEN","Cargo",21,"2016-12-14T19:33:05Z","2016-12-14T20:13:05Z",57.95989,11.71741,"2016-12-14T19:55:05Z",57.93928,11.68787,2882.51800558412
"146",182374,"BOB","Tug",84,"2016-12-14T11:13:04Z","2016-12-19T14:33:04Z",57.99959,11.75667,"2016-12-18T08:07:05Z",57.92059,11.60003,12763.662796562
"147",182384,"SVITZER ODEN","Tug",3012,"2016-12-14T11:05:07Z","2016-12-20T11:11:05Z",57.91877,11.60117,"2016-12-17T09:59:04Z",57.83373,11.60234,9466.86283349982
"148",182387,"SVITZER TYR","Tug",8452,"2016-12-13T11:31:05Z","2016-12-20T11:11:05Z",57.60295,11.60271,"2016-12-18T02:55:05Z",57.60198,11.65766,3279.21173365717
"149",182391,"HAUKUR","Cargo",409,"2016-12-13T11:31:07Z","2016-12-14T01:45:06Z",55.72101,21.10265,"2016-12-13T23:39:06Z",55.72609,21.08812,1072.19516935747
"150",182418,"TIDAN","Cargo",636,"2016-12-15T03:43:05Z","2016-12-19T22:41:07Z",57.60259,11.65599,"2016-12-15T10:11:05Z",55.71618,20.80508,597284.135666156
"151",182425,"EKEN","Cargo",483,"2016-12-15T05:53:07Z","2016-12-15T14:21:05Z",57.99507,12.12761,"2016-12-15T05:55:08Z",57.98357,12.12594,1283.96129716638
"152",182428,"VINGAREN","Cargo",2591,"2016-12-13T11:31:07Z","2016-12-20T11:11:04Z",55.75435,20.80184,"2016-12-13T12:47:06Z",59.92171,30.00018,714651.213193134
"153",182431,"SVITZER GAIA","Tug",2777,"2016-12-13T11:31:05Z","2016-12-18T17:35:05Z",57.83505,11.60139,"2016-12-15T17:23:06Z",57.92107,11.61045,9590.70732551944
"154",182435,"SVITZER GEO","Tug",6325,"2016-12-13T11:31:08Z","2016-12-20T10:59:07Z",57.68212,11.82458,"2016-12-19T03:57:07Z",57.67896,11.80486,1225.23435187795
"155",183675,"CITY OF ROME","Cargo",825,"2016-12-15T04:17:05Z","2016-12-15T18:49:05Z",57.61467,11.66392,"2016-12-15T04:27:05Z",57.62616,11.68129,1645.6804507862
"156",184318,"DC OSTEND","Tug",2286,"2016-12-14T14:45:02Z","2016-12-20T05:45:01Z",54.79695,18.79787,"2016-12-15T06:07:08Z",54.79846,18.7637,2199.18362824162
"157",188790,"GIJON KNUTSEN","Tanker",866,"2016-12-18T03:41:05Z","2016-12-19T08:37:06Z",57.6765,11.74267,"2016-12-19T07:47:05Z",57.67817,11.71917,1411.04453207629
"158",188849,"ANINA","Cargo",920,"2016-12-14T01:17:06Z","2016-12-15T00:51:05Z",57.6115,11.634,"2016-12-15T00:49:05Z",57.61167,11.6025,1878.40756238583
"159",188914,"ADELINA D","Cargo",637,"2016-12-15T05:19:05Z","2016-12-15T16:31:06Z",57.6635,11.77983,"2016-12-15T16:03:05Z",57.6565,11.75017,1930.49406858018
"160",190564,"CELESTE OF SOLENT","Pleasure",8938,"2016-12-13T11:31:05Z","2016-12-20T11:11:05Z",57.67101,11.84939,"2016-12-15T00:15:08Z",57.67095,11.84949,8.94713797537697
"161",191974,"HELENA KOSAN","Tanker",22,"2016-12-13T15:51:05Z","2016-12-13T16:33:05Z",57.97732,11.74162,"2016-12-13T15:59:05Z",57.96961,11.72932,1124.22491764746
"162",192887,"CPO GERMANY","Tanker",2340,"2016-12-13T11:31:04Z","2016-12-15T10:07:04Z",59.91166,30.05059,"2016-12-15T09:59:04Z",59.91595,30.02949,1270.63841835381
"163",194104,"TAMINA SPIRIT","Unspecified",12,"2016-12-14T11:33:06Z","2016-12-14T11:55:06Z",57.95872,11.70883,"2016-12-14T11:43:05Z",57.94043,11.68542,2461.27360618948
"164",195991,"KAREN C","Cargo",2105,"2016-12-18T09:05:02Z","2016-12-20T10:59:07Z",54.53817,18.68033,"2016-12-18T11:03:06Z",54.53733,18.6585,1412.96259972169
"165",196066,"BOA ODIN","Tug",1124,"2016-12-18T22:45:02Z","2016-12-20T11:11:02Z",54.55005,18.81425,"2016-12-19T02:43:01Z",54.54596,18.80762,624.940264964301
"166",197150,"MARIE KIRK","Tanker",5390,"2016-12-13T11:31:05Z","2016-12-18T12:09:05Z",57.63437,11.68732,"2016-12-18T11:55:05Z",57.62285,11.67487,1481.60849832817
"167",200327,"BIRGIT KNUTSEN","Tanker",1143,"2016-12-13T11:31:07Z","2016-12-15T22:17:06Z",55.79769,20.80321,"2016-12-13T14:25:07Z",55.71124,20.98247,14789.0463919897
"168",201103,"STENA BALTICA","Passenger",2024,"2016-12-13T18:41:02Z","2016-12-20T07:43:07Z",54.56133,18.82333,"2016-12-14T19:55:01Z",54.53783,18.7605,4826.97721193779
"169",201104,"EILEEN MCLOUGHLIN","Tug",1245,"2016-12-13T23:37:02Z","2016-12-19T06:51:01Z",54.53,18.80567,"2016-12-17T14:45:02Z",54.58433,18.89067,8166.11662254234
"170",201975,"MEWO NAVIGATOR","Tug",3055,"2016-12-13T11:31:08Z","2016-12-20T10:59:07Z",54.78692,18.54412,"2016-12-17T19:11:06Z",54.78175,18.55804,1062.86734080904
"171",204253,"KEY BREEZE","Tanker",18,"2016-12-14T01:31:05Z","2016-12-14T02:05:05Z",57.92921,11.66758,"2016-12-14T01:57:04Z",57.92495,11.64325,1514.32536480801
"172",204358,"BOTHNIA","Tanker",2348,"2016-12-17T10:35:05Z","2016-12-19T14:49:05Z",57.66153,11.77267,"2016-12-19T14:23:04Z",57.65619,11.74696,1642.41560066161
"173",204384,"ORAMALIA","Tanker",262,"2016-12-13T11:31:08Z","2016-12-13T19:37:02Z",54.56119,18.85031,"2016-12-13T18:11:02Z",54.57315,18.87065,1869.68592252025
"174",204416,"STORTEBEKER","Cargo",2434,"2016-12-17T03:35:03Z","2016-12-18T20:15:04Z",59.90795,30.06853,"2016-12-17T03:49:04Z",59.90365,30.0899,1285.29462339388
"175",204427,"PHANTOM","Cargo",6291,"2016-12-13T11:31:04Z","2016-12-20T11:11:02Z",59.92157,30.00041,"2016-12-16T10:05:04Z",54.78657,18.99969,871651.093967599
"176",204431,"SAXUM","Cargo",565,"2016-12-19T02:51:07Z","2016-12-19T22:45:05Z",55.71747,21.10957,"2016-12-19T21:09:06Z",55.72813,21.0776,2329.29383039952
"177",204546,"MSC AMY","Cargo",869,"2016-12-16T10:17:05Z","2016-12-17T01:29:05Z",57.68117,11.8255,"2016-12-17T00:45:08Z",57.67567,11.80383,1427.72469074053
"178",204565,"PINTA","Cargo",501,"2016-12-15T06:03:06Z","2016-12-17T06:05:05Z",57.8814,12.02976,"2016-12-17T02:49:07Z",57.87129,12.02258,1203.01744217641
"179",204772,"FRI PORSGRUNN","Cargo",8296,"2016-12-14T14:51:04Z","2016-12-20T11:11:04Z",59.90734,30.07189,"2016-12-14T15:05:05Z",59.90305,30.09235,1237.88791112611
"180",204901,"NORDEROOG","Cargo",2477,"2016-12-18T15:35:03Z","2016-12-20T09:47:04Z",59.88723,30.17037,"2016-12-20T09:11:04Z",59.90061,30.10557,3912.88276883273
"181",205264,"SUEDEROOG","Cargo",1477,"2016-12-13T11:31:04Z","2016-12-14T19:45:04Z",59.87295,30.20375,"2016-12-14T02:29:04Z",59.89033,30.22363,2230.77114703091
"182",205458,"AMBER SPIRIT","Cargo",225,"2016-12-19T09:13:03Z","2016-12-19T17:45:02Z",54.65795,19.84142,"2016-12-19T15:15:03Z",54.63288,19.89483,4429.92403631227
"183",205520,"MULTIMAR","Cargo",6,"2016-12-20T10:57:01Z","2016-12-20T11:11:02Z",54.78885,18.91414,"2016-12-20T11:01:02Z",54.78098,18.93245,1465.94293855861
"184",205553,"HOOGE","Cargo",2569,"2016-12-15T15:01:03Z","2016-12-17T09:59:04Z",59.9176,30.02119,"2016-12-15T15:03:04Z",59.91205,30.04817,1627.40010807878
"185",205637,"LIV KRISTIN","Cargo",842,"2016-12-15T16:45:01Z","2016-12-16T19:03:07Z",54.6979,18.96096,"2016-12-16T18:07:01Z",54.71239,18.92755,2686.9209138275
"186",205767,"LISTER","Cargo",1815,"2016-12-19T03:13:05Z","2016-12-20T11:11:04Z",59.92163,30.00039,"2016-12-19T03:15:04Z",59.91781,30.01933,1139.10323932719
"187",205790,"KEY BORA","Tanker",55,"2016-12-13T23:19:03Z","2016-12-14T01:07:02Z",54.63927,20.00914,"2016-12-14T00:11:02Z",54.63808,19.99305,1045.01273235051
"188",205932,"KEY FJORD","Tanker",179,"2016-12-13T11:31:03Z","2016-12-14T19:33:03Z",54.63268,19.898,"2016-12-13T14:21:03Z",54.63334,19.93015,2072.82330413847
"189",205940,"KEY BAY","Tanker",1785,"2016-12-14T10:09:05Z","2016-12-15T16:21:06Z",57.63471,11.68745,"2016-12-15T16:03:05Z",57.62228,11.67425,1591.72320555617
"190",205994,"WYBELSUM","Cargo",1106,"2016-12-19T15:19:03Z","2016-12-20T11:11:04Z",59.9141,30.03724,"2016-12-19T15:27:04Z",59.91015,30.05674,1173.72404075079
"191",206401,"TRANSOSPREY","Cargo",4432,"2016-12-13T11:21:01Z","2016-12-19T22:17:04Z",54.72713,18.99946,"2016-12-16T22:13:02Z",59.92068,30.0053,876546.780157695
"192",206519,"TASMAN","Cargo",37,"2016-12-15T06:41:05Z","2016-12-16T16:19:05Z",57.98169,11.74611,"2016-12-16T15:43:05Z",57.96387,11.71894,2551.05652569267
"193",206618,"ORAKAI","Tanker",6288,"2016-12-14T10:09:03Z","2016-12-18T19:13:04Z",59.91048,30.0548,"2016-12-18T19:05:04Z",59.91547,30.03042,1469.58055726866
"194",206630,"KATELINA","Tanker",1959,"2016-12-14T20:57:05Z","2016-12-16T06:13:05Z",57.63342,11.68755,"2016-12-16T06:03:05Z",57.62231,11.67482,1450.94982888487
"195",206635,"ARA ROTTERDAM","Cargo",1786,"2016-12-13T11:31:03Z","2016-12-16T10:17:06Z",55.00592,19.83046,"2016-12-14T17:41:02Z",55.61112,20.80787,91506.4336812321
"196",212317,"MSC MANDRAKI","Cargo",565,"2016-12-13T11:45:06Z","2016-12-14T14:11:06Z",55.72787,20.85677,"2016-12-13T11:51:06Z",55.72766,20.88405,1710.25736207076
"197",212572,"EURONIKE","Tanker",391,"2016-12-19T20:35:05Z","2016-12-20T11:11:05Z",57.62206,11.68268,"2016-12-19T20:45:05Z",57.63465,11.69145,1495.81320132436
"198",213558,"MINERVA GEORGIA","Tanker",2446,"2016-12-14T13:07:02Z","2016-12-16T12:43:02Z",54.45885,18.99556,"2016-12-16T11:03:01Z",54.79312,18.9965,37210.8154951885
"199",214595,"MINERVA ALICE","Tanker",4780,"2016-12-13T11:21:01Z","2016-12-20T11:11:02Z",54.38025,18.65993,"2016-12-15T07:57:01Z",54.38085,18.65798,142.982267686783
"200",222305,"SANDETTIE","Cargo",927,"2016-12-13T11:21:01Z","2016-12-14T10:53:02Z",54.40707,18.65818,"2016-12-14T02:51:02Z",54.75603,18.96664,43646.5592404995
"201",222372,"LURO","Cargo",351,"2016-12-15T04:59:05Z","2016-12-15T13:13:05Z",57.8895,12.03617,"2016-12-15T05:55:08Z",57.87833,12.0275,1345.14499222917
"202",222824,"LECKO","Cargo",520,"2016-12-15T05:25:06Z","2016-12-20T11:11:05Z",57.61483,11.67417,"2016-12-20T10:11:05Z",57.65167,11.72317,5034.39480992664
"203",223660,"THUN GALAXY","Tanker",5975,"2016-12-13T11:21:01Z","2016-12-20T11:11:06Z",54.69195,18.99655,"2016-12-17T13:01:01Z",55.74546,20.80074,163940.203225497
"204",226006,"FREYA","Cargo",718,"2016-12-15T04:01:05Z","2016-12-15T16:35:06Z",57.67333,11.798,"2016-12-15T16:03:05Z",57.66083,11.77167,2096.12167554962
"205",226912,"HENDRIKA MARGARETHA","Cargo",156,"2016-12-13T19:21:05Z","2016-12-19T19:47:06Z",57.92032,11.60437,"2016-12-13T20:05:05Z",54.79905,18.5848,552737.48669579
"206",231568,"ENFORCER","Cargo",672,"2016-12-16T10:51:02Z","2016-12-17T08:15:02Z",54.53519,18.59532,"2016-12-16T12:55:07Z",54.53548,18.55798,2411.91903946403
"207",245589,"ANJELIERSGRACHT","Cargo",39,"2016-12-14T11:07:05Z","2016-12-16T10:57:05Z",57.94062,11.68803,"2016-12-16T10:45:05Z",57.93012,11.67011,1577.25488444277
"208",246960,"NJORD","Cargo",4074,"2016-12-16T13:57:03Z","2016-12-19T10:03:05Z",59.90236,30.09618,"2016-12-19T09:49:06Z",59.90729,30.07167,1474.11115787845
"209",251928,"CORAL STICHO","Tanker",43,"2016-12-18T03:07:06Z","2016-12-18T23:37:05Z",57.93739,11.68278,"2016-12-18T23:23:05Z",57.92943,11.66798,1245.08811530988
"210",253976,"FOREST","Cargo",47,"2016-12-15T17:47:03Z","2016-12-15T19:23:03Z",54.6327,19.90475,"2016-12-15T19:05:02Z",54.64883,19.86498,3128.58157324127
"211",254047,"ESL AFRICA","Cargo",415,"2016-12-19T19:37:06Z","2016-12-20T11:11:06Z",55.84693,20.80334,"2016-12-19T19:39:05Z",55.83699,20.81754,1418.49173702036
"212",254064,"EMOTION","Cargo",1113,"2016-12-14T17:07:02Z","2016-12-16T12:03:07Z",54.79411,18.97551,"2016-12-15T12:07:02Z",55.73155,20.80289,155958.098892865
"213",254318,"TRICA","Cargo",1091,"2016-12-19T15:03:03Z","2016-12-20T09:53:04Z",59.88806,30.2011,"2016-12-20T09:11:04Z",59.89521,30.1315,3967.26398472632
"214",257347,"CAROLINA","Cargo",275,"2016-12-20T04:29:13Z","2016-12-20T10:33:07Z",57.89535,12.03937,"2016-12-20T08:35:16Z",57.94847,12.08942,6612.27038091129
"215",257862,"SAFFIER","Cargo",376,"2016-12-14T12:07:07Z","2016-12-15T06:33:06Z",55.73774,20.87151,"2016-12-15T06:21:07Z",55.73665,20.8532,1153.91650410961
"216",257926,"AIGRAN D","Tanker",2026,"2016-12-14T16:15:07Z","2016-12-20T00:55:02Z",55.75078,20.81078,"2016-12-18T06:31:07Z",54.66877,19.8058,136314.07431372
"217",258225,"PRISCILLA","Cargo",3,"2016-12-19T19:11:05Z","2016-12-19T19:15:05Z",57.60335,11.61722,"2016-12-19T19:13:05Z",57.60552,11.60822,588.617697101487
"218",258858,"DINTELBORG","Cargo",1542,"2016-12-13T12:27:03Z","2016-12-15T23:51:03Z",54.68567,20.22827,"2016-12-15T21:31:03Z",54.68526,20.17245,3592.29915890973
"219",259111,"WISBY VERITY","Tanker",38,"2016-12-19T08:31:06Z","2016-12-19T21:59:04Z",57.94907,11.69939,"2016-12-19T21:41:05Z",57.9367,11.68279,1690.60969858423
"220",259202,"TINA","Cargo",180,"2016-12-13T11:21:01Z","2016-12-13T16:37:01Z",54.55447,18.84484,"2016-12-13T15:49:01Z",54.56521,18.86041,1561.87959913145
"221",259232,"SKAGENBANK","Cargo",508,"2016-12-19T07:39:06Z","2016-12-19T17:19:05Z",57.61919,11.68127,"2016-12-19T07:47:05Z",57.63065,11.69334,1464.61053700023
"222",260019,"STAR CURACAO","Tanker",84,"2016-12-19T14:57:03Z","2016-12-20T11:11:02Z",54.65587,19.84729,"2016-12-19T15:35:03Z",54.63261,19.90474,4516.55435589337
"223",260071,"DONGEBORG","Cargo",5277,"2016-12-14T10:43:02Z","2016-12-20T11:11:02Z",54.74545,18.9621,"2016-12-14T11:05:01Z",54.73329,18.95905,1367.76214742204
"224",260333,"SOMERSET","Cargo",858,"2016-12-13T19:13:06Z","2016-12-17T14:07:05Z",57.67833,11.72617,"2016-12-14T01:15:05Z",57.669,11.69333,2213.64531255886
"225",262498,"SLINGEBORG","Cargo",1356,"2016-12-14T20:31:05Z","2016-12-18T22:41:06Z",57.62883,11.67933,"2016-12-18T22:33:04Z",57.61417,11.6575,2087.2803510367
"226",262503,"TIDEWAY ROLLINGSTONE","Tug",4503,"2016-12-13T16:27:03Z","2016-12-20T11:11:02Z",55.00588,19.81804,"2016-12-19T01:47:02Z",54.66067,19.80943,38432.5661466211
"227",262525,"SCHIEBORG","Cargo",1177,"2016-12-16T04:25:05Z","2016-12-20T01:11:04Z",57.61017,11.63217,"2016-12-16T04:29:05Z",57.6165,11.66683,2183.46897404493
"228",263477,"PLYCA","Cargo",706,"2016-12-14T10:09:03Z","2016-12-14T21:53:04Z",59.91821,30.018,"2016-12-14T21:51:05Z",59.92117,30.0038,858.07447329118
"229",263501,"THUN GLORY","Tanker",3228,"2016-12-15T17:29:05Z","2016-12-18T18:47:05Z",57.63115,11.69187,"2016-12-15T17:51:04Z",57.64325,11.70208,1477.98723968905
"230",263649,"DIJKSGRACHT","Cargo",3214,"2016-12-13T11:31:07Z","2016-12-18T13:51:06Z",55.72404,21.02729,"2016-12-18T13:11:05Z",55.72994,21.00316,1649.09638604876
"231",263683,"CORAL MEANDRA","Tanker",21,"2016-12-19T13:35:04Z","2016-12-19T14:17:05Z",57.92804,11.66216,"2016-12-19T13:47:05Z",57.93575,11.68014,1365.97442082475
"232",264274,"LINGEDIJK","Cargo",964,"2016-12-13T11:21:01Z","2016-12-14T13:01:02Z",54.40303,18.67678,"2016-12-14T02:51:02Z",54.50918,18.78108,13608.3680664306
"233",265269,"VICTORIABORG","Cargo",850,"2016-12-18T17:07:06Z","2016-12-20T11:11:06Z",55.66924,21.14524,"2016-12-20T10:03:06Z",55.71801,21.10651,5948.06048746484
"234",265353,"FAST HERMAN","Cargo",895,"2016-12-13T11:31:04Z","2016-12-14T02:29:04Z",59.89684,30.21549,"2016-12-13T14:05:04Z",59.91337,30.22852,1978.63897990516
"235",265510,"THEA MARIEKE","Cargo",4354,"2016-12-16T18:03:07Z","2016-12-20T11:11:02Z",54.53445,18.79455,"2016-12-16T20:27:06Z",54.52118,18.77537,1928.03460627701
"236",265873,"STEENBANK","Cargo",49,"2016-12-16T00:53:03Z","2016-12-16T02:45:02Z",54.63259,19.90238,"2016-12-16T01:37:02Z",54.6338,19.936,2170.411155649
"237",266600,"PITZTAL","Cargo",2358,"2016-12-13T11:31:04Z","2016-12-15T10:25:04Z",59.902,30.09755,"2016-12-15T10:07:04Z",59.90575,30.07908,1112.32547916743
"238",268459,"ALANA EVITA","Cargo",2986,"2016-12-16T00:33:03Z","2016-12-20T11:11:02Z",54.66463,19.82511,"2016-12-17T16:43:03Z",54.5491,18.98915,55410.7859551471
"239",268899,"TERSCHELLING","Cargo",2294,"2016-12-16T05:43:04Z","2016-12-17T20:03:04Z",59.91047,30.05565,"2016-12-16T05:55:05Z",59.90586,30.07837,1368.00235265887
"240",269768,"SEA GOLF","Tug",214,"2016-12-15T14:33:03Z","2016-12-15T22:09:03Z",54.97065,20.27675,"2016-12-15T14:49:03Z",54.9776,20.3772,6464.35606013738
"241",270056,"AMELAND","Cargo",731,"2016-12-18T13:11:02Z","2016-12-19T23:47:02Z",54.633,19.89367,"2016-12-18T13:17:02Z",54.64067,20.02383,8429.16353247522
"242",270219,"OOCL RAUMA","Cargo",2628,"2016-12-15T14:45:04Z","2016-12-17T10:43:04Z",59.91561,30.03031,"2016-12-15T14:51:04Z",59.91059,30.05536,1505.49461645731
"243",270507,"ADAMAS","Cargo",258,"2016-12-13T11:31:07Z","2016-12-14T22:57:06Z",55.72534,20.85354,"2016-12-14T22:55:06Z",55.71969,20.8096,2825.71735188401
"244",270798,"JADE","Cargo",747,"2016-12-14T22:41:07Z","2016-12-16T11:23:06Z",55.68204,20.84196,"2016-12-14T22:55:06Z",55.69443,20.88115,2819.55955381229
"245",271828,"ZEALAND BEATRIX","Cargo",4096,"2016-12-14T10:21:07Z","2016-12-20T10:59:06Z",55.65665,20.86282,"2016-12-17T00:33:06Z",55.69824,20.86267,4629.78719542706
"246",272139,"PRINS MAURITS","Tanker",4780,"2016-12-13T11:21:01Z","2016-12-20T11:11:02Z",54.46178,18.87786,"2016-12-14T02:51:02Z",54.45961,18.87485,310.299720886303
"247",273075,"NERO","Tug",3143,"2016-12-14T12:11:02Z","2016-12-19T12:39:03Z",54.98031,20.40794,"2016-12-19T05:31:03Z",54.98509,20.30384,6670.93058905207
"248",278706,"GRANDE EUROPA","Cargo",40,"2016-12-18T14:03:05Z","2016-12-19T04:41:05Z",57.9532,11.70476,"2016-12-19T04:25:06Z",57.93951,11.68789,1820.93174236095
"249",279287,"INDIAN POINT","Tanker",1163,"2016-12-19T13:35:04Z","2016-12-20T11:11:05Z",57.65815,11.76211,"2016-12-19T14:09:04Z",57.66346,11.77994,1215.1985493775
"250",279934,"PROCIDA","Tanker",594,"2016-12-13T11:31:05Z","2016-12-14T13:53:05Z",57.652,11.71765,"2016-12-14T13:31:05Z",57.64052,11.69327,1934.55931944419
"251",280027,"SCOTTISH VIKING","Passenger",4340,"2016-12-13T11:21:01Z","2016-12-19T19:01:01Z",54.765,18.94562,"2016-12-19T18:57:01Z",54.78376,18.93119,2284.66295453262
"252",281227,"GRANDE MEDITERRANEO","Cargo",37,"2016-12-13T12:45:06Z","2016-12-14T15:51:05Z",57.93787,11.68484,"2016-12-14T15:41:05Z",57.92467,11.6568,2214.88349721425
"253",283730,"BOGDAN","Cargo",458,"2016-12-13T11:21:01Z","2016-12-14T10:15:02Z",54.38472,18.66143,"2016-12-14T02:51:02Z",54.78593,18.98923,49415.317785921
"254",283815,"ZAMOSKVORECHYE","Cargo",346,"2016-12-15T07:37:02Z","2016-12-17T23:59:02Z",54.68554,20.17347,"2016-12-15T14:51:03Z",54.68573,20.22603,3382.28063944272
"255",283840,"AMUR STAR","Tanker",880,"2016-12-13T11:31:05Z","2016-12-14T02:29:07Z",57.67306,11.79004,"2016-12-13T12:09:05Z",57.67588,11.80105,726.682454889519
"256",284471,"FALKBRIS","Cargo",290,"2016-12-15T13:17:03Z","2016-12-19T15:35:03Z",54.6695,19.82589,"2016-12-16T15:31:02Z",54.63331,19.89368,5940.65982571314
"257",284483,"OPAL","Tug",2762,"2016-12-16T12:31:07Z","2016-12-20T10:59:07Z",54.53518,18.55029,"2016-12-19T16:45:06Z",54.53458,18.55618,386.244366000714
"258",284882,"ATLANTIC RUNNER","Cargo",9481,"2016-12-13T11:31:04Z","2016-12-20T11:11:04Z",59.90295,30.22353,"2016-12-14T15:05:05Z",59.90658,30.22843,487.955308139916
"259",285833,"STRANDJA","Cargo",1312,"2016-12-18T13:21:06Z","2016-12-20T11:11:06Z",55.72063,20.89128,"2016-12-19T03:45:06Z",55.72252,20.90764,1047.07514539934
"260",285899,"UMAR1","Tanker",951,"2016-12-13T12:43:05Z","2016-12-20T11:11:02Z",57.60098,11.6855,"2016-12-15T21:01:08Z",54.65694,19.80968,600612.235428576
"261",286668,"TRANS FJELL","Tanker",42,"2016-12-13T16:05:05Z","2016-12-14T11:01:05Z",57.95829,11.71159,"2016-12-13T16:33:05Z",57.96871,11.72754,1494.17961578446
"262",287761,"WILSON BILBAO","Cargo",779,"2016-12-14T18:43:02Z","2016-12-15T17:39:07Z",54.67572,18.93328,"2016-12-14T19:55:01Z",54.65024,18.92236,2922.26231623795
"263",288123,"PATRICIA","Tanker",7740,"2016-12-14T14:05:05Z","2016-12-20T11:11:05Z",57.67567,11.80362,"2016-12-19T12:55:04Z",57.68377,11.85105,2963.40875321059
"264",288159,"PATANI","Tanker",43,"2016-12-17T12:43:05Z","2016-12-18T17:35:05Z",57.97335,11.72842,"2016-12-18T17:05:06Z",57.9618,11.71457,1523.76264640488
"265",288246,"BESIKTAS HALLAND","Tanker",2386,"2016-12-13T11:31:04Z","2016-12-15T10:55:05Z",59.91314,30.04284,"2016-12-15T10:49:05Z",59.91771,30.02034,1354.69514970382
"266",288897,"KAPITAN MIRONOV","Cargo",447,"2016-12-20T02:25:03Z","2016-12-20T11:11:04Z",59.91975,30.01034,"2016-12-20T02:27:04Z",59.91663,30.02603,941.838457701937
"267",289583,"KAPITAN YAKOVLEV","Cargo",2824,"2016-12-14T10:09:03Z","2016-12-16T09:15:05Z",59.9024,30.09604,"2016-12-16T08:57:04Z",59.90648,30.07582,1216.64413066454
"268",290089,"UFA","Cargo",195,"2016-12-14T01:37:03Z","2016-12-19T03:35:02Z",54.64828,20.07527,"2016-12-14T02:47:02Z",54.69624,20.43857,23987.559512021
"269",290098,"VENERE","Tanker",4,"2016-12-19T14:57:05Z","2016-12-19T15:03:05Z",57.60433,11.608,"2016-12-19T14:59:06Z",57.60266,11.621,797.32442258985
"270",291621,"NACC TORONTO","Cargo",55,"2016-12-13T21:51:02Z","2016-12-13T23:39:02Z",54.63306,19.89324,"2016-12-13T23:21:03Z",54.64939,19.86546,2550.91951418396
"271",297208,"MARIEKE","Tug",3763,"2016-12-13T19:01:06Z","2016-12-20T11:11:02Z",55.72043,20.80652,"2016-12-13T20:41:06Z",54.63621,19.92242,133134.612050079
"272",297592,"JAMES COOK","Tug",4780,"2016-12-13T11:21:01Z","2016-12-20T11:11:02Z",54.37533,18.6615,"2016-12-18T00:09:02Z",54.37517,18.6615,17.8111185265374
"273",299445,"FROG RANA","Tug",671,"2016-12-13T13:35:06Z","2016-12-20T10:45:05Z",57.71275,11.95854,"2016-12-14T02:05:05Z",57.66158,11.83507,9296.5752084893
"274",299816,"LUKE","Tanker",5500,"2016-12-13T11:21:01Z","2016-12-20T11:11:05Z",54.79767,18.91228,"2016-12-18T16:41:02Z",57.60288,11.67853,545609.115926514
"275",300093,"VIONA","Cargo",449,"2016-12-20T01:21:06Z","2016-12-20T11:11:05Z",57.60448,11.66448,"2016-12-20T01:25:06Z",57.60928,11.66926,605.618236957879
"276",300096,"AKACIA","Cargo",759,"2016-12-15T08:31:02Z","2016-12-17T10:43:03Z",54.46332,18.9992,"2016-12-16T08:11:02Z",54.66873,19.80998,57104.5007866035
"277",300118,"IRIS BOLTEN","Cargo",747,"2016-12-14T16:05:07Z","2016-12-15T22:15:01Z",55.62799,20.80453,"2016-12-15T03:51:06Z",54.69598,18.99102,155116.907937662
"278",300161,"ANNAMARIE","Cargo",900,"2016-12-15T06:31:05Z","2016-12-15T22:05:06Z",57.61783,11.6745,"2016-12-15T06:39:05Z",57.63334,11.69167,2007.09903882123
"279",300168,"EMILIA","Cargo",887,"2016-12-16T01:05:03Z","2016-12-17T19:29:03Z",54.68553,20.174,"2016-12-16T02:57:03Z",54.68555,20.23076,3652.49200267757
"280",300784,"KAIE","Cargo",2426,"2016-12-18T17:01:03Z","2016-12-20T11:11:04Z",59.92081,30.00438,"2016-12-18T17:01:04Z",59.91813,30.01789,810.683915661447
"281",300801,"FREDERIK","Cargo",1153,"2016-12-16T05:53:01Z","2016-12-18T03:03:06Z",55.19833,19.88672,"2016-12-17T00:37:03Z",55.7121,20.80083,81242.2906617495
"282",301169,"BALTIYSKIY-202","Cargo",6181,"2016-12-14T16:13:02Z","2016-12-20T11:11:02Z",54.46891,18.71478,"2016-12-20T09:11:07Z",54.50566,18.77121,5481.89688442736
"283",301374,"MARY A","Tanker",299,"2016-12-17T15:37:02Z","2016-12-17T23:11:02Z",54.4532,18.68288,"2016-12-17T16:51:07Z",54.46228,18.70129,1562.34347522344
"284",301875,"BALTIC FROST","Tanker",4781,"2016-12-16T02:21:03Z","2016-12-19T10:15:04Z",59.90125,30.10108,"2016-12-19T09:57:04Z",59.90569,30.07941,1306.74404263128
"285",302841,"B GAS CHAMPION","Tanker",1133,"2016-12-18T19:03:05Z","2016-12-19T14:59:06Z",57.63475,11.69837,"2016-12-18T19:17:05Z",57.6461,11.70762,1378.4471621539
"286",304547,"SOLSTRAUM","Tanker",142,"2016-12-13T21:55:05Z","2016-12-20T06:05:02Z",57.60824,11.60952,"2016-12-13T21:59:05Z",54.73861,18.998,557803.19502805
"287",304819,"RESCUE BERGESEN D.Y","Tug",820,"2016-12-13T15:35:05Z","2016-12-16T12:37:05Z",57.94052,11.69243,"2016-12-13T15:47:05Z",57.95715,11.71138,2163.40030692835
"288",305383,"NORTHERN KATTEGAT","Tanker",5784,"2016-12-13T11:31:05Z","2016-12-20T11:11:05Z",57.68316,11.87161,"2016-12-14T02:29:07Z",57.60485,11.68306,14218.7845377564
"289",306293,"CLIPPER HARALD","Tanker",21,"2016-12-20T02:33:05Z","2016-12-20T03:13:04Z",57.96892,11.72741,"2016-12-20T03:03:04Z",57.97871,11.74401,1465.61119394438
"290",306484,"KEGUMS","Cargo",606,"2016-12-13T11:31:04Z","2016-12-13T21:35:05Z",59.91596,30.02845,"2016-12-13T21:31:04Z",59.91918,30.01302,932.605617475138
"291",306746,"EK-STAR","Tanker",2854,"2016-12-17T07:35:05Z","2016-12-20T11:11:05Z",57.66336,11.77758,"2016-12-17T08:03:05Z",57.67365,11.79809,1674.25821976113
"292",307368,"RESCUE B. RASMUSSEN","Tug",554,"2016-12-13T11:31:05Z","2016-12-20T10:45:05Z",57.98885,11.73763,"2016-12-20T10:29:05Z",57.97419,11.69244,3126.80761065274
"293",307788,"STAR ISFJORD","Cargo",90,"2016-12-19T11:29:01Z","2016-12-20T06:39:07Z",54.75713,18.99659,"2016-12-19T11:43:02Z",54.69692,18.99504,6703.28712494404
"294",308314,"HOEGH TRIDENT","Cargo",437,"2016-12-14T10:09:05Z","2016-12-14T17:45:05Z",57.66784,11.78583,"2016-12-14T17:11:04Z",57.65933,11.76417,1600.24883818452
"295",309724,"XANTHIA","Tanker",595,"2016-12-19T13:19:06Z","2016-12-20T11:11:06Z",55.73485,20.96872,"2016-12-19T13:45:05Z",55.73166,21.00007,1996.7868227889
"296",310529,"POLAR","Fishing",9444,"2016-12-13T11:31:05Z","2016-12-20T11:11:05Z",57.71579,11.95836,"2016-12-15T15:57:08Z",57.71556,11.95796,34.9453944259238
"297",310855,"VASTFJORD II","Fishing",4725,"2016-12-13T11:31:05Z","2016-12-20T11:11:05Z",57.67399,11.66501,"2016-12-14T23:45:05Z",57.67385,11.66483,18.9127116994395
"298",312793,"DANUBIA","Cargo",450,"2016-12-17T09:55:05Z","2016-12-20T09:33:04Z",57.65377,11.72674,"2016-12-20T09:11:05Z",57.61215,11.66631,5868.12005064412
"299",312941,"EKEN","Tanker",4536,"2016-12-15T15:09:03Z","2016-12-18T18:59:04Z",59.91273,30.04425,"2016-12-15T15:17:05Z",59.90863,30.06415,1200.74272679931
"300",313641,"BESS","Tug",163,"2016-12-13T12:39:06Z","2016-12-19T14:19:05Z",57.92759,11.6645,"2016-12-17T16:49:08Z",57.91573,11.63872,2016.41517528837
"301",314533,"EKFORS","Tanker",444,"2016-12-20T02:29:03Z","2016-12-20T11:11:04Z",59.885,30.17967,"2016-12-20T03:15:04Z",59.8805,30.1895,743.24978467316
"302",315660,"MAJA","Tug",4750,"2016-12-13T11:21:01Z","2016-12-20T10:59:07Z",54.36606,18.64834,"2016-12-14T02:51:02Z",54.40533,18.66537,4508.75543333299
"303",315661,"TYTAN","Tug",777,"2016-12-13T15:03:02Z","2016-12-20T07:17:06Z",54.40533,18.66829,"2016-12-19T12:55:06Z",54.42708,18.65045,2682.83909025711
"304",315663,"OCEANIA","Tug",4663,"2016-12-13T11:21:01Z","2016-12-20T11:11:02Z",54.395,18.67381,"2016-12-17T23:51:02Z",54.39485,18.67397,19.6557394904274
"305",315672,"ARES","Tug",4982,"2016-12-13T11:21:01Z","2016-12-20T11:11:02Z",54.40098,18.7215,"2016-12-20T00:29:06Z",54.39855,18.70049,1388.1026518477
"306",315676,"AGIS","Tug",4660,"2016-12-13T11:21:01Z","2016-12-20T11:11:02Z",54.40693,18.66183,"2016-12-19T08:41:01Z",54.40404,18.67805,1099.08070612791
"307",315677,"ARGO","Tug",4719,"2016-12-13T11:21:01Z","2016-12-20T11:11:02Z",54.39029,18.6687,"2016-12-14T23:59:02Z",54.39014,18.66879,17.687589423893
"308",315679,"AJAKS","Tug",2946,"2016-12-13T11:21:01Z","2016-12-20T09:05:01Z",54.39446,18.67523,"2016-12-20T05:37:02Z",54.3878,18.66668,925.61570627011
"309",315687,"HALICZ","Tanker",953,"2016-12-13T11:21:01Z","2016-12-20T10:59:07Z",54.79863,18.53098,"2016-12-14T20:07:07Z",54.79967,18.46382,4311.17830106257
"310",315695,"RUBIN","Passenger",4777,"2016-12-13T11:21:01Z","2016-12-20T11:11:02Z",54.35761,18.70439,"2016-12-20T06:13:01Z",54.3575,18.70433,12.8488190114101
"311",315703,"PILOT-3","Tug",3009,"2016-12-15T02:29:07Z","2016-12-20T10:59:07Z",54.52387,18.54965,"2016-12-17T15:17:07Z",54.52378,18.54962,10.2045069146692
"312",315705,"PILOT-5","Tug",1016,"2016-12-13T12:39:08Z","2016-12-20T09:09:14Z",54.53472,18.5624,"2016-12-18T19:41:07Z",54.53499,18.60472,2733.54687882595
"313",315719,"TUCANA","Tug",3980,"2016-12-13T12:33:07Z","2016-12-20T10:59:07Z",54.52044,18.5503,"2016-12-14T02:29:07Z",54.40438,18.67282,15157.9476345047
"314",315726,"ODISSEY","Tug",142,"2016-12-16T03:17:03Z","2016-12-16T17:15:02Z",54.83105,19.80945,"2016-12-16T04:47:03Z",54.68392,19.80845,16378.562644349
"315",315728,"PORONIEC","Tanker",676,"2016-12-15T09:17:02Z","2016-12-20T11:11:02Z",54.79846,18.62115,"2016-12-16T02:43:07Z",54.73298,18.99408,25035.1373227369
"316",315731,"ODYS","Tug",4698,"2016-12-13T11:31:08Z","2016-12-20T10:59:07Z",54.52943,18.52593,"2016-12-17T20:49:07Z",54.52919,18.526,27.0966340349318
"317",315731,"BBAS","Tug",3,"2016-12-16T00:59:07Z","2016-12-16T01:03:07Z",54.52943,18.52593,"2016-12-17T20:49:07Z",54.52919,18.526,27.0966340349318
"318",315739,"IKAR","Tug",2811,"2016-12-13T11:31:08Z","2016-12-17T21:09:07Z",54.37982,18.66038,"2016-12-16T08:57:02Z",54.36386,18.66486,1800.25383034843
"319",315746,"WLA 108","Fishing",163,"2016-12-20T05:43:02Z","2016-12-20T10:59:07Z",54.75691,18.70708,"2016-12-20T05:59:07Z",54.74677,18.71972,1390.52913224514
"320",315753,"LEB-7","Fishing",1592,"2016-12-15T04:43:02Z","2016-12-20T10:59:07Z",54.74087,18.6593,"2016-12-19T12:55:06Z",54.75195,18.63059,2219.07138812521
"321",315755,"INZ. ST. LEGOWSKI","Tug",2163,"2016-12-13T11:31:08Z","2016-12-20T11:11:02Z",54.77827,18.53787,"2016-12-14T02:29:07Z",54.35652,18.67622,47790.4487550447
"322",315775,"AGAT","Passenger",2221,"2016-12-13T19:13:07Z","2016-12-20T10:03:06Z",54.5514,18.99818,"2016-12-17T09:41:02Z",54.6465,19.83599,55054.8696352996
"323",315804,"HEL-111","Fishing",2008,"2016-12-13T11:21:01Z","2016-12-19T23:53:02Z",54.79856,18.73015,"2016-12-18T06:13:08Z",54.79767,18.85563,8052.80362626917
"324",315805,"HEL 112","Fishing",677,"2016-12-14T22:07:02Z","2016-12-19T23:51:02Z",54.79729,18.80079,"2016-12-15T00:05:01Z",54.79933,18.65145,9585.96096300218
"325",315812,"SM PRC 112","Tug",3698,"2016-12-13T11:21:01Z","2016-12-18T22:13:02Z",54.4085,18.74618,"2016-12-13T11:21:01Z",54.419,18.76442,1662.03656788299
"326",315816,"SM PRC 105","Tug",3583,"2016-12-15T12:15:02Z","2016-12-20T11:11:02Z",54.38186,18.66007,"2016-12-15T16:11:02Z",54.3717,18.66387,1157.53206558243
"327",315820,"SM PRC 108","Tug",4993,"2016-12-13T11:21:01Z","2016-12-20T11:11:02Z",54.45215,18.81922,"2016-12-16T21:07:01Z",54.4463,18.80798,976.389604699783
"328",315824,"SMPRC110","Tug",547,"2016-12-13T11:21:01Z","2016-12-15T16:25:02Z",54.40457,18.66957,"2016-12-13T22:17:07Z",54.39933,18.67995,890.313540282626
"329",315864,"KOL-48","Tug",222,"2016-12-13T12:45:08Z","2016-12-14T20:15:08Z",54.79836,18.43598,"2016-12-13T12:49:08Z",54.79544,18.42675,675.647377078157
"330",315869,"TAURUS","Tug",8618,"2016-12-13T11:21:01Z","2016-12-20T11:11:02Z",54.4236,18.65058,"2016-12-20T05:23:06Z",54.40378,18.67478,2706.58431220157
"331",315877,"KAPER-2 SG-312","Fishing",932,"2016-12-13T11:31:08Z","2016-12-20T11:11:02Z",54.54259,18.65607,"2016-12-20T11:01:02Z",54.54381,18.6805,1583.40731380598
"332",315887,"WLA-307","Fishing",198,"2016-12-13T11:31:08Z","2016-12-18T06:43:07Z",54.79653,18.41913,"2016-12-14T19:15:07Z",54.79652,18.4319,819.498505366273
"333",315889,"WLA-209 BLANKA","Fishing",206,"2016-12-14T18:55:07Z","2016-12-17T21:43:06Z",54.79887,18.43543,"2016-12-16T16:03:07Z",54.79605,18.42918,509.32156002414
"334",315892,"WIATR","Tug",4780,"2016-12-13T11:21:01Z","2016-12-20T11:11:02Z",54.39991,18.84552,"2016-12-20T09:11:02Z",54.36809,18.78008,5526.65872811171
"335",315901,"HEL-150","Fishing",1544,"2016-12-13T11:21:01Z","2016-12-20T11:11:02Z",54.43809,18.99997,"2016-12-19T10:55:02Z",54.54118,18.98796,11502.1710222594
"336",315903,"HEL 23","Fishing",1631,"2016-12-15T10:45:02Z","2016-12-20T04:51:02Z",54.79855,18.87031,"2016-12-15T12:49:02Z",54.79923,18.95095,5175.21522969529
"337",315907,"WLA 253","Fishing",157,"2016-12-13T13:21:02Z","2016-12-20T03:37:06Z",54.69599,18.72768,"2016-12-13T14:43:07Z",54.70285,18.71236,1246.7461559424
"338",315909,"WLA-13O","Fishing",960,"2016-12-13T19:45:07Z","2016-12-18T12:43:07Z",54.79633,18.41696,"2016-12-14T19:51:08Z",54.79861,18.46391,3023.55490000159
"339",315912,"WLA 116","Fishing",719,"2016-12-14T13:57:08Z","2016-12-20T04:07:06Z",54.79826,18.43361,"2016-12-20T04:05:14Z",54.79989,18.4425,598.630132698879
"340",315924,"WLA-254","Fishing",462,"2016-12-15T04:11:07Z","2016-12-20T04:13:07Z",54.79649,18.42639,"2016-12-15T04:17:07Z",54.79999,18.44629,1335.11647743162
"341",315927,"JAS 102","Fishing",1879,"2016-12-15T04:05:02Z","2016-12-20T10:31:02Z",54.56517,18.99999,"2016-12-17T06:17:02Z",54.58678,18.99541,2423.69755889025
"342",315929,"JAS-74","Fishing",2317,"2016-12-13T12:21:02Z","2016-12-20T07:15:01Z",54.69625,18.67479,"2016-12-17T20:01:07Z",54.48427,18.93163,28831.9987875278
"343",315930,"JAS 78","Fishing",5316,"2016-12-15T03:45:02Z","2016-12-20T07:21:02Z",54.4543,18.99326,"2016-12-19T08:27:01Z",54.56546,18.99991,12381.7356847382
"344",315932,"NEPTUN W","Tug",1105,"2016-12-16T05:51:07Z","2016-12-20T10:59:07Z",54.79548,18.41867,"2016-12-16T05:51:07Z",54.79816,18.42727,627.364770426828
"345",315941,"WLA-295","Fishing",263,"2016-12-13T11:35:07Z","2016-12-14T20:49:07Z",54.79669,18.43465,"2016-12-14T20:47:07Z",54.79936,18.4416,535.956168671842
"346",315946,"WLA-305","Fishing",1373,"2016-12-15T03:11:08Z","2016-12-20T05:03:08Z",54.79918,18.44281,"2016-12-17T10:35:07Z",54.79984,18.71746,17624.1384567777
"347",315948,"WLA310","Fishing",736,"2016-12-14T18:39:07Z","2016-12-19T20:47:14Z",54.79611,18.42464,"2016-12-19T20:43:16Z",54.79883,18.43298,614.911231677091
"348",315950,".WLA-311","Fishing",4,"2016-12-14T19:29:07Z","2016-12-14T19:35:07Z",54.79657,18.43504,"2016-12-18T03:17:07Z",54.79646,18.41907,1024.92689288661
"349",315950,"WLA-311","Fishing",362,"2016-12-18T03:17:07Z","2016-12-19T20:51:06Z",54.79657,18.43504,"2016-12-18T03:17:07Z",54.79646,18.41907,1024.92689288661
"350",315951,"WLA-312","Fishing",1693,"2016-12-13T11:31:08Z","2016-12-20T10:59:07Z",54.79628,18.42995,"2016-12-14T19:55:06Z",54.79964,18.44099,801.127643560555
"351",315959,"GDA-20","Fishing",2316,"2016-12-13T18:51:02Z","2016-12-19T02:53:02Z",54.67441,18.99993,"2016-12-15T07:29:02Z",54.41359,18.99597,29035.4756168895
"352",315960,"GDA-18","Fishing",3144,"2016-12-13T14:27:02Z","2016-12-20T06:13:01Z",54.79884,18.76773,"2016-12-15T08:49:07Z",54.79977,18.83827,4527.68282568564
"353",315968,"JAS-64","Fishing",3783,"2016-12-15T03:55:06Z","2016-12-20T07:45:01Z",54.51767,18.99464,"2016-12-17T07:35:01Z",54.64897,18.9963,14616.6414427314
"354",315971,"WLA-291","Fishing",1261,"2016-12-13T11:21:01Z","2016-12-19T22:59:06Z",54.79381,18.75323,"2016-12-18T06:25:08Z",54.57128,18.99571,29277.1566331879
"355",315979,"JAS-80","Fishing",1806,"2016-12-15T06:53:02Z","2016-12-20T02:49:02Z",54.69943,18.99941,"2016-12-15T08:27:02Z",54.64479,18.99526,6088.36046098256
"356",315983,"WLA-184 HELOT","Fishing",4253,"2016-12-13T11:31:08Z","2016-12-20T10:43:06Z",54.52193,18.5509,"2016-12-20T09:03:06Z",54.52152,18.54946,103.629275596453
"357",315986,"JAS 77","Fishing",1452,"2016-12-14T23:09:02Z","2016-12-20T05:47:01Z",54.69597,18.67434,"2016-12-17T20:25:07Z",54.58949,18.81434,14894.0658620755
"358",315998,"JAS 31","Fishing",2186,"2016-12-13T11:21:01Z","2016-12-20T02:51:10Z",54.79669,18.92915,"2016-12-16T00:49:01Z",54.79908,18.98393,3525.36885070893
"359",316004,"HEL-152","Fishing",2542,"2016-12-13T11:21:01Z","2016-12-20T11:11:02Z",54.79922,18.70689,"2016-12-18T10:03:07Z",54.79939,18.81003,6618.44345112368
"360",316006,"WLA-22","Fishing",159,"2016-12-15T04:15:07Z","2016-12-20T08:23:07Z",54.79597,18.43716,"2016-12-18T04:13:07Z",54.79729,18.44796,708.479494331334
"361",316016,"WLA 51","Fishing",497,"2016-12-13T16:29:02Z","2016-12-20T03:47:06Z",54.78111,18.49622,"2016-12-13T18:51:07Z",54.7866,18.47771,1336.18117638643
"362",316038,"WLA-217","Fishing",243,"2016-12-13T11:21:01Z","2016-12-20T08:05:07Z",54.79586,18.89992,"2016-12-13T12:59:02Z",54.79933,18.45274,28698.9726331252
"363",316042,"WLA-6","Fishing",741,"2016-12-15T04:07:06Z","2016-12-20T04:27:07Z",54.79902,18.43411,"2016-12-17T04:25:07Z",54.79701,18.41978,946.405199863496
"364",316044,"WLA-197","Fishing",1139,"2016-12-14T00:05:08Z","2016-12-20T04:21:06Z",54.79743,18.42825,"2016-12-15T04:23:07Z",54.79802,18.77056,21966.7128071679
"365",316046,"JAS 39","Fishing",1862,"2016-12-16T04:29:01Z","2016-12-20T07:51:02Z",54.60051,18.80351,"2016-12-17T14:37:02Z",54.69555,18.67388,13477.5373546652
"366",316049,"JAS-12","Fishing",1869,"2016-12-14T13:05:02Z","2016-12-20T07:09:02Z",54.63068,18.99728,"2016-12-15T10:27:02Z",54.56837,18.99592,6936.87188328414
"367",316050,"JAS 51","Fishing",823,"2016-12-16T04:31:02Z","2016-12-20T07:53:02Z",54.42486,18.99862,"2016-12-19T07:53:02Z",54.50483,18.98656,8936.34928542838
"368",316051,"PILOT 20","Tug",6368,"2016-12-13T11:21:01Z","2016-12-18T10:17:07Z",54.45253,18.83314,"2016-12-16T12:55:01Z",54.43705,18.76387,4803.6361641426
"369",316052,"PILOT21","Tug",5029,"2016-12-13T14:45:02Z","2016-12-20T11:11:02Z",54.41735,18.65637,"2016-12-15T22:19:07Z",54.41284,18.77338,7596.25649913532
"370",316056,"HEL-103","Fishing",1895,"2016-12-13T13:31:02Z","2016-12-17T00:55:06Z",54.79896,18.58353,"2016-12-15T20:07:07Z",54.68947,18.77327,17239.5591961837
"371",316061,"HEL-102","Fishing",702,"2016-12-14T22:05:02Z","2016-12-19T23:49:06Z",54.79677,18.76717,"2016-12-14T23:57:08Z",54.79534,18.70248,4154.49363972726
"372",316076,"LE VOYAGEUR","Pleasure",4145,"2016-12-13T11:21:01Z","2016-12-20T11:11:02Z",54.36806,18.77865,"2016-12-19T22:43:02Z",54.36809,18.77848,11.5195544764889
"373",316079,"DZI-92 ATILIUS","Fishing",380,"2016-12-15T03:43:07Z","2016-12-20T04:11:13Z",54.79614,18.42568,"2016-12-20T04:09:07Z",54.79985,18.44069,1048.01811796166
"374",316083,"WLA-32","Fishing",1072,"2016-12-14T14:23:07Z","2016-12-20T04:09:07Z",54.79849,18.42962,"2016-12-16T03:45:06Z",54.79947,18.44576,1041.42979330978
"375",316086,"JAS 76","Fishing",2934,"2016-12-13T11:21:01Z","2016-12-20T08:21:01Z",54.79682,18.69658,"2016-12-15T08:05:08Z",54.79561,18.84209,9338.95190144927
"376",316093,"ZAG 31","Fishing",4053,"2016-12-13T11:21:01Z","2016-12-20T05:45:01Z",54.4668,18.99775,"2016-12-17T05:39:02Z",54.44646,18.9902,2316.35119292185
"377",316100,"KOL-148","Fishing",10,"2016-12-15T02:23:07Z","2016-12-18T00:33:07Z",54.79916,18.44166,"2016-12-15T02:33:07Z",54.79731,18.42032,1384.80699383757
"378",316106,"WLA 31","Fishing",597,"2016-12-13T16:17:02Z","2016-12-20T04:07:06Z",54.79627,18.42453,"2016-12-18T04:15:07Z",54.79564,18.62986,13177.1471352025
"379",316111,"WLA-207","Fishing",819,"2016-12-13T11:21:01Z","2016-12-19T03:49:07Z",54.76241,18.57099,"2016-12-13T15:23:06Z",54.76664,18.5554,1106.45813090726
"380",316117,"WLA-196","Fishing",1680,"2016-12-13T11:31:02Z","2016-12-20T04:21:06Z",54.79899,18.43903,"2016-12-17T04:15:07Z",54.79955,18.5135,4779.09495029892
"381",316133,"DZI 85","Fishing",764,"2016-12-13T11:31:08Z","2016-12-20T04:15:13Z",54.79667,18.42983,"2016-12-18T03:41:07Z",54.79833,18.477,3032.63412374827
"382",316135,"WLA 60","Fishing",869,"2016-12-13T11:21:01Z","2016-12-20T06:21:02Z",54.79879,18.78897,"2016-12-18T06:37:06Z",54.79922,18.76735,1388.17512404736
"383",316141,"HYDROGRAF 10","Tug",1014,"2016-12-14T10:09:07Z","2016-12-20T11:11:02Z",54.47264,18.63902,"2016-12-20T07:53:07Z",54.46761,18.64893,851.187735711934
"384",316150,"WLA 11","Fishing",74,"2016-12-15T04:15:07Z","2016-12-20T03:49:06Z",54.79811,18.42881,"2016-12-16T04:07:08Z",54.79979,18.44126,820.511567397145
"385",316153,"CHA-10","Pleasure",1538,"2016-12-15T12:09:08Z","2016-12-20T01:29:07Z",54.79719,18.42195,"2016-12-16T12:45:08Z",54.78913,18.59412,11086.0653329653
"386",316156,"SM-PRC-107","Cargo",4769,"2016-12-13T11:21:01Z","2016-12-20T11:11:02Z",54.35757,18.67409,"2016-12-14T20:05:02Z",54.35765,18.67402,9.99639218032857
"387",316171,"WLA-39","Fishing",141,"2016-12-14T20:09:07Z","2016-12-20T02:35:06Z",54.79922,18.49945,"2016-12-18T02:55:06Z",54.79983,18.44707,3361.85308315479
"388",316174,"CENTAUR II","Tug",1757,"2016-12-13T11:31:08Z","2016-12-20T02:47:01Z",54.5355,18.56733,"2016-12-16T01:43:07Z",54.53333,18.59983,2112.9995287522
"389",316178,"WLA182","Fishing",165,"2016-12-13T16:15:07Z","2016-12-19T21:05:07Z",54.79671,18.42289,"2016-12-16T22:41:06Z",54.79723,18.4341,721.704105775912
"390",316187,"WLA-58","Fishing",527,"2016-12-15T03:21:07Z","2016-12-20T03:09:15Z",54.7969,18.43235,"2016-12-18T03:47:06Z",54.79985,18.51362,5225.48410138961
"391",316201,"K1","Cargo",450,"2016-12-13T11:31:08Z","2016-12-14T02:29:07Z",54.54105,18.56006,"2016-12-14T02:27:07Z",54.54105,18.56006,0
"392",316202,"WLA 80","Fishing",8,"2016-12-20T04:25:07Z","2016-12-20T11:11:02Z",54.79767,18.43156,"2016-12-20T04:33:15Z",54.79661,18.72787,19015.3624662954
"393",316203,"KOL-110","Tug",274,"2016-12-13T11:21:01Z","2016-12-14T20:17:07Z",54.61851,18.8991,"2016-12-13T11:21:01Z",54.61981,18.88518,908.808679003611
"394",316212,"WLA-65","Fishing",1150,"2016-12-13T11:21:01Z","2016-12-20T04:15:13Z",54.67517,18.89062,"2016-12-13T13:45:02Z",54.68263,18.85677,2331.50441617429
"395",316232,"ANNA MARIA","Pleasure",8927,"2016-12-13T15:33:07Z","2016-12-20T11:11:02Z",54.69707,18.67603,"2016-12-17T09:01:08Z",54.69701,18.67608,7.41334354080126
"396",316236,"WLA-67","Fishing",2305,"2016-12-13T11:21:01Z","2016-12-20T11:11:02Z",54.43056,18.99781,"2016-12-15T08:09:02Z",54.53438,18.99882,11557.3741118336
"397",316237,"KPT.WISNIEWSKI","Fishing",5,"2016-12-17T06:13:08Z","2016-12-18T07:11:07Z",54.79715,18.42188,"2016-12-17T06:15:07Z",54.79809,18.42753,377.369343971791
"398",316242,"ANCILLA WLA-68","Fishing",52,"2016-12-13T14:13:07Z","2016-12-20T03:41:07Z",54.79672,18.4304,"2016-12-18T03:47:06Z",54.79977,18.4426,853.338425481478
"399",316243,"R-20","Tug",2802,"2016-12-13T11:39:07Z","2016-12-20T11:01:02Z",54.53327,18.57774,"2016-12-20T08:47:06Z",54.52128,18.58479,1410.28310376422
"400",316265,"KONTROLER 19","Tug",1753,"2016-12-14T11:25:07Z","2016-12-20T11:11:02Z",54.79565,18.44004,"2016-12-20T09:11:07Z",54.77155,18.56968,8743.87254212054
"401",316280,"JUNA","Pleasure",823,"2016-12-13T11:31:08Z","2016-12-20T10:59:07Z",54.51805,18.55237,"2016-12-19T11:41:06Z",54.51795,18.55228,12.5594057452533
"402",316291,"ZAG-27","Tug",3279,"2016-12-13T14:57:02Z","2016-12-20T05:47:01Z",54.39503,18.87674,"2016-12-13T15:33:01Z",54.39051,18.85907,1250.90527725405
"403",316312,"FILIPPO","Pleasure",742,"2016-12-19T08:29:02Z","2016-12-20T09:39:02Z",54.35782,18.77942,"2016-12-19T08:33:02Z",54.35801,18.77933,21.9416498431928
"404",316331,"KOL-143","Fishing",363,"2016-12-13T14:53:08Z","2016-12-17T23:59:06Z",54.7965,18.41905,"2016-12-14T11:23:07Z",54.79787,18.43168,824.723697163906
"405",316334,"HEL-4","Fishing",1047,"2016-12-13T11:21:01Z","2016-12-18T21:53:02Z",54.74201,18.99223,"2016-12-16T14:31:01Z",54.62632,18.99098,12878.8031021116
"406",316335,"KUZ-42","Fishing",1812,"2016-12-15T11:01:02Z","2016-12-20T02:51:10Z",54.60289,18.80058,"2016-12-17T11:47:02Z",54.63484,18.99275,12886.9110616228
"407",316404,"KM ,TAN BORCHARDT","Pleasure",12,"2016-12-18T18:45:02Z","2016-12-18T18:55:07Z",54.69582,18.67619,"2016-12-19T09:25:07Z",54.69592,18.67635,15.1615667452588
"408",316404,"KAPITAN BORCHARDT","Pleasure",9476,"2016-12-13T11:21:01Z","2016-12-20T11:11:02Z",54.69582,18.67619,"2016-12-19T09:25:07Z",54.69592,18.67635,15.1615667452588
"409",316405,"HEL-30","Fishing",618,"2016-12-15T04:19:02Z","2016-12-18T04:03:10Z",54.79971,18.80706,"2016-12-15T07:33:02Z",54.79663,18.42929,24244.2954726689
"410",316410,"WLA-84","Fishing",397,"2016-12-17T17:41:07Z","2016-12-20T05:05:06Z",54.79762,18.43322,"2016-12-18T09:17:07Z",54.7998,18.742,19815.9443435597
"411",316468,"ORKA HEL","Pleasure",717,"2016-12-17T05:53:07Z","2016-12-18T05:49:06Z",54.79654,18.42666,"2016-12-18T05:47:07Z",54.79654,18.42666,0
"412",316480,"FAIRPLAY VII","Tug",448,"2016-12-13T22:03:07Z","2016-12-20T06:13:07Z",54.53508,18.54856,"2016-12-16T02:43:07Z",54.53096,18.53252,1133.02071530841
"413",316482,"WXA A SZCZESCIA","Pleasure",3,"2016-12-16T04:55:07Z","2016-12-16T04:59:08Z",54.51793,18.54998,"2016-12-16T16:11:07Z",54.51776,18.55076,53.8357241407134
"414",316482,"WYSPA SZCZESCIA","Pleasure",4182,"2016-12-14T13:01:09Z","2016-12-20T10:59:07Z",54.51793,18.54998,"2016-12-16T16:11:07Z",54.51776,18.55076,53.8357241407134
"415",316513,"MAGNUS ZAREMBA","Pleasure",4029,"2016-12-13T11:21:01Z","2016-12-20T11:11:02Z",54.36012,18.66599,"2016-12-18T14:49:02Z",54.36006,18.66609,9.31050764768997
"416",316518,"ZAG-21","Fishing",1914,"2016-12-13T15:37:01Z","2016-12-20T05:51:01Z",54.48479,18.99528,"2016-12-16T05:53:01Z",54.40871,18.99656,8469.59210534475
"417",316546,"KONTROLER 20","Unspecified",969,"2016-12-13T13:55:02Z","2016-12-20T11:11:02Z",54.35363,18.65975,"2016-12-20T09:11:02Z",54.3927,18.67264,4428.84010421083
"418",316558,"ANKAWER IV","Pleasure",635,"2016-12-13T14:45:02Z","2016-12-14T19:25:02Z",54.36741,18.77855,"2016-12-13T15:25:01Z",54.36734,18.77858,8.03158026879084
"419",316599,"BALTICA","Fishing",2890,"2016-12-13T11:31:08Z","2016-12-20T10:59:07Z",54.42768,18.99997,"2016-12-15T08:59:02Z",54.70739,18.99247,31140.9365592895
"420",316649,"KAPITAN POINC","Tug",4727,"2016-12-13T11:31:08Z","2016-12-20T11:11:02Z",54.53566,18.56371,"2016-12-20T08:45:07Z",54.53081,18.57949,1153.40935259282
"421",316664,"DAR MLODZIEZY","Pleasure",4721,"2016-12-13T11:31:08Z","2016-12-20T10:59:07Z",54.51921,18.55857,"2016-12-13T17:35:06Z",54.51931,18.5586,11.2994538140799
"422",316722,"BIZON-O-158","Tug",75,"2016-12-18T12:53:03Z","2016-12-19T11:21:02Z",54.68669,20.18929,"2016-12-18T14:01:02Z",54.68539,20.22924,2574.81056376962
"423",316784,"WEZYR 1","Tug",4371,"2016-12-13T11:21:01Z","2016-12-20T11:11:02Z",54.35209,18.73997,"2016-12-14T02:51:02Z",54.35435,18.67847,3997.76785161355
"424",316798,"KRYSTYNA","Unspecified",265,"2016-12-16T15:25:02Z","2016-12-18T01:43:03Z",54.68453,20.16931,"2016-12-16T15:31:02Z",54.68571,20.22615,3660.03508124996
"425",316904,"ZODIAK","Tug",9493,"2016-12-13T11:21:01Z","2016-12-20T11:11:02Z",54.53156,18.69515,"2016-12-20T11:01:02Z",54.53039,18.72245,1768.23454333097
"426",316923,"ROMANKA","Tanker",4508,"2016-12-13T14:07:08Z","2016-12-20T11:11:02Z",54.38083,18.64951,"2016-12-14T02:51:02Z",54.53517,18.59146,17586.9005915192
"427",316934,"FRANEK ZUBRZYCKI","Fishing",1000,"2016-12-14T10:09:07Z","2016-12-15T17:21:07Z",54.63113,18.87422,"2016-12-15T15:19:01Z",54.6411,18.87042,1136.53814122652
"428",316950,"ZEUS","Tug",865,"2016-12-19T06:21:03Z","2016-12-20T02:55:07Z",54.45427,18.68326,"2016-12-19T08:57:06Z",54.44609,18.67191,1169.96382710056
"429",316954,"HORYZONT II","Tug",4719,"2016-12-13T11:31:08Z","2016-12-20T10:59:07Z",54.52839,18.52999,"2016-12-15T08:07:08Z",54.52862,18.53052,42.7518790075082
"430",316969,"ORP BALTYK","Tug",4722,"2016-12-13T12:43:02Z","2016-12-20T10:59:07Z",54.74684,18.985,"2016-12-13T12:49:02Z",54.72737,18.96446,2537.7451516584
"431",316974,"ORP CZERNICKI","Tug",842,"2016-12-13T11:21:01Z","2016-12-14T11:55:08Z",54.42844,18.87161,"2016-12-13T11:21:01Z",54.41934,18.8949,1816.94973737463
"432",316982,"ORP ZBYSZKO","Tug",1815,"2016-12-14T10:09:07Z","2016-12-16T14:25:07Z",54.58204,18.79522,"2016-12-15T06:07:08Z",54.56668,18.78334,1873.83888778865
"433",316983,"ORP MACKO","Tug",545,"2016-12-14T10:11:08Z","2016-12-15T07:21:07Z",54.53841,18.53372,"2016-12-15T07:19:07Z",54.53841,18.53372,0
"434",317044,"ORP ARCTOWSKI","Tug",1474,"2016-12-13T11:21:01Z","2016-12-20T10:59:07Z",54.54216,18.55809,"2016-12-14T02:29:07Z",54.49074,18.63225,7465.14086198824
"435",317046,"HEWELIUSZ","Tug",2722,"2016-12-13T11:21:01Z","2016-12-17T14:51:07Z",54.46995,18.74134,"2016-12-16T08:43:07Z",54.47963,18.7627,1752.1661913443
"436",317048,"ORP FLAMING","Tug",1093,"2016-12-13T11:31:08Z","2016-12-15T07:37:07Z",54.54711,18.58494,"2016-12-13T12:09:07Z",54.54266,18.58431,497.03930860681
"437",317050,"WDZYDZE","Tug",160,"2016-12-20T07:23:14Z","2016-12-20T11:11:02Z",54.5512,18.63158,"2016-12-20T07:35:06Z",54.55427,18.6539,1480.95313709152
"438",317140,"BRYZA","Tug",1373,"2016-12-14T10:09:07Z","2016-12-19T13:21:14Z",54.79757,18.44621,"2016-12-17T14:17:06Z",54.79655,18.42936,1087.25724599386
"439",317143,"ORP BIELIK","Tug",924,"2016-12-13T11:21:01Z","2016-12-14T10:27:07Z",54.73008,18.74678,"2016-12-14T10:27:02Z",54.73008,18.74678,0
"440",317163,"ZAWISZA CZARNY","Pleasure",2027,"2016-12-13T11:31:08Z","2016-12-18T20:33:07Z",54.79242,18.97705,"2016-12-13T18:37:02Z",55.99943,20.87371,180071.802675903
"441",317202,"IMOR","Tug",1933,"2016-12-13T11:31:08Z","2016-12-20T05:15:06Z",54.79881,18.56626,"2016-12-15T10:41:07Z",54.79852,18.43365,8509.679653142
"442",317205,"MUSASHI M","Pleasure",490,"2016-12-13T13:03:08Z","2016-12-14T12:59:07Z",54.51734,18.55065,"2016-12-14T12:57:07Z",54.51734,18.55065,0
"443",317353,"VIRTUS","Tug",4911,"2016-12-13T11:21:01Z","2016-12-20T11:11:02Z",54.40742,18.7589,"2016-12-15T04:15:07Z",54.40574,18.72058,2489.83373177137
"444",317379,"ORKA WLA-139","Fishing",895,"2016-12-15T14:15:01Z","2016-12-16T18:47:07Z",54.63648,18.83714,"2016-12-15T15:19:01Z",54.623,18.84261,1541.42805947459
"445",317395,"R3","Tug",168,"2016-12-17T12:21:02Z","2016-12-17T18:23:08Z",54.53547,18.56106,"2016-12-17T13:03:07Z",54.59788,18.75448,14286.0381400094
"446",317421,"AKUL","Tug",1078,"2016-12-13T11:31:02Z","2016-12-20T11:11:02Z",54.40788,18.76895,"2016-12-16T10:47:07Z",54.40267,18.72794,2719.7315365161
"447",319754,"SJOEBEFAELSSKOLAN","Tug",9444,"2016-12-13T11:31:05Z","2016-12-20T11:11:05Z",57.70535,11.93741,"2016-12-18T23:41:08Z",57.70664,11.93659,151.657372134681
"448",319865,"FURUNO SVERIGE AB","Pleasure",4871,"2016-12-15T07:47:05Z","2016-12-20T11:11:05Z",57.66339,11.94319,"2016-12-16T09:59:08Z",57.66349,11.94331,13.2278145074777
"449",319954,"STENA DANICA","Passenger",4812,"2016-12-13T15:25:05Z","2016-12-20T09:09:13Z",57.70141,11.94293,"2016-12-14T02:29:07Z",57.60029,11.63546,21497.0718949228
"450",319974,"VASTANVIK","Cargo",952,"2016-12-19T03:31:01Z","2016-12-20T11:01:02Z",54.53333,18.81033,"2016-12-20T09:11:02Z",54.58216,18.88781,7386.62252989555
"451",320059,"SKAGERAK","Fishing",9067,"2016-12-13T11:31:05Z","2016-12-20T11:11:05Z",57.64533,11.8585,"2016-12-16T20:01:09Z",57.64328,11.86087,268.352518833468
"452",320105,"STENA VISION","Passenger",1407,"2016-12-13T15:55:02Z","2016-12-19T22:01:06Z",54.79028,18.80602,"2016-12-13T21:31:02Z",54.79681,18.75879,3117.09027765731
"453",320177,"ORIGO","Passenger",8205,"2016-12-13T11:31:05Z","2016-12-20T11:11:05Z",57.67769,11.76862,"2016-12-14T16:45:05Z",57.67888,11.78706,1105.50486909923
"454",320210,"WALONA","Pleasure",9264,"2016-12-13T11:31:05Z","2016-12-20T11:11:05Z",57.70317,11.94353,"2016-12-16T17:15:11Z",57.69901,11.91768,1605.83259978472
"455",320215,"GUTE","Cargo",3772,"2016-12-13T11:31:05Z","2016-12-20T11:11:05Z",57.60435,11.60661,"2016-12-13T20:49:05Z",57.69635,11.91565,21065.1880688657
"456",320298,"STENA JUTLANDICA","Passenger",4341,"2016-12-13T11:31:05Z","2016-12-20T11:11:05Z",57.60855,11.61805,"2016-12-14T00:33:05Z",57.69179,11.90333,19355.1138933847
"457",320466,"STOCKHOLM","Cargo",9418,"2016-12-13T11:31:05Z","2016-12-20T11:11:05Z",57.71867,11.97328,"2016-12-20T05:45:07Z",57.71863,11.97329,4.49229504334805
"458",320479,"GINNETON","Fishing",5334,"2016-12-13T11:31:05Z","2016-12-20T11:11:05Z",57.71497,11.95756,"2016-12-15T21:57:08Z",57.71513,11.95762,18.1648928817207
"459",320546,"HAMNEN","Passenger",9390,"2016-12-13T11:31:05Z","2016-12-20T10:59:05Z",57.69351,11.91335,"2016-12-14T02:29:07Z",57.68424,11.86022,3325.5066642842
"460",320572,"PILOT 729 SE","Tug",340,"2016-12-13T13:57:06Z","2016-12-14T02:29:05Z",57.70665,11.66311,"2016-12-13T23:23:06Z",57.70667,11.6631,2.304455275111
"461",320704,"KBV 490","Tug",549,"2016-12-19T14:03:05Z","2016-12-20T11:11:05Z",57.68163,11.87057,"2016-12-19T14:05:05Z",57.68163,11.87052,2.97569982764714
"462",320712,"NORDO III","Passenger",4629,"2016-12-13T11:31:05Z","2016-12-20T11:11:05Z",57.75609,11.63932,"2016-12-14T15:41:05Z",57.76962,11.62356,1773.21413290638
"463",320717,"VESTA","Passenger",3418,"2016-12-13T11:39:05Z","2016-12-20T10:59:05Z",57.60153,11.79194,"2016-12-13T19:21:05Z",57.65069,11.79239,5472.53189932355
"464",320737,"PILOT 746 SE","Tug",5693,"2016-12-13T11:31:05Z","2016-12-20T11:11:05Z",57.68192,11.87159,"2016-12-14T02:29:07Z",57.60663,11.69077,13648.8037335419
"465",320738,"PILOT 745 SE","Tug",5025,"2016-12-14T10:57:06Z","2016-12-20T11:11:05Z",57.67402,11.83795,"2016-12-20T10:11:05Z",57.63811,11.6481,11992.548523578
"466",320779,"SOUND CASTOR","Unspecified",4445,"2016-12-13T13:13:08Z","2016-12-20T09:55:07Z",57.71217,11.958,"2016-12-14T02:29:07Z",57.6145,11.61117,23338.8517507489
"467",320839,"ALVSNABBEN 5","Passenger",5031,"2016-12-13T11:31:05Z","2016-12-20T11:11:05Z",57.70218,11.92533,"2016-12-20T09:11:08Z",57.71219,11.96432,2572.66068238075
"468",320843,"ALVSNABBEN 4","Passenger",5477,"2016-12-13T11:31:05Z","2016-12-20T11:11:05Z",57.70351,11.94312,"2016-12-20T09:11:08Z",57.69279,11.91155,2225.07477900609
"469",320875,"PILOT 115 SE","Tug",311,"2016-12-13T11:31:05Z","2016-12-19T13:09:07Z",57.68347,11.87015,"2016-12-19T12:55:04Z",57.68067,11.84763,1376.00649897729
"470",320905,"KBV 048","Tug",445,"2016-12-13T11:31:05Z","2016-12-14T02:29:05Z",57.68169,11.87062,"2016-12-14T02:27:05Z",57.68169,11.87062,0
"471",321076,"ALVBJORN","Tug",7956,"2016-12-13T11:31:05Z","2016-12-20T11:11:05Z",57.83063,12.00929,"2016-12-18T05:13:07Z",57.83053,12.00927,11.1948839674715
"472",321088,"ADA","Passenger",4698,"2016-12-13T11:31:05Z","2016-12-20T11:11:05Z",57.70795,11.70189,"2016-12-16T15:43:05Z",57.69927,11.66946,2157.35447544411
"473",321089,"BEDA","Passenger",3483,"2016-12-13T11:31:05Z","2016-12-20T11:11:05Z",57.69883,11.6675,"2016-12-14T02:19:05Z",57.70813,11.70251,2325.48486527207
"474",321092,"GOTA","Passenger",4067,"2016-12-13T11:31:05Z","2016-12-20T11:11:05Z",57.70813,11.70251,"2016-12-20T09:11:05Z",57.6987,11.66765,2324.00351539721
"475",321093,"MARIE","Passenger",3733,"2016-12-13T11:31:05Z","2016-12-20T10:59:05Z",57.70815,11.70251,"2016-12-20T10:11:05Z",57.69866,11.6676,2329.67879191319
"476",321183,"EAGLE","Pleasure",8,"2016-12-16T08:53:06Z","2016-12-16T08:59:08Z",57.60223,11.91666,"2016-12-16T08:55:08Z",57.60266,11.91622,54.5893677704535
"477",321197,"NYA SKARGARDEN","Passenger",8589,"2016-12-13T11:31:05Z","2016-12-20T11:11:05Z",57.70426,11.95,"2016-12-16T18:57:07Z",57.71055,11.95918,887.885578286064
"478",321277,"RESCUE LARS LINDFELT","Tug",97,"2016-12-15T08:09:06Z","2016-12-19T12:17:07Z",57.67569,11.73641,"2016-12-15T09:09:05Z",57.67309,11.79943,3762.46989338045
"479",321341,"RESCUE MARTA COLLIN","Tug",4675,"2016-12-13T11:31:05Z","2016-12-20T11:11:05Z",57.77215,11.61888,"2016-12-14T02:29:05Z",57.70799,11.66604,7672.28215585876
"480",321587,"ARLAN","Passenger",5049,"2016-12-13T11:31:05Z","2016-12-20T11:11:05Z",57.64459,11.84249,"2016-12-20T09:11:08Z",57.60499,11.79455,5253.41873842807
"481",321589,"ALVSNABBEN 3","Passenger",5208,"2016-12-13T11:33:08Z","2016-12-20T11:11:05Z",57.70613,11.95547,"2016-12-17T17:11:07Z",57.70527,11.93951,954.028090795939
"482",321593,"YLVA","Passenger",5281,"2016-12-13T11:31:05Z","2016-12-20T11:11:05Z",57.61589,11.79435,"2016-12-14T02:29:05Z",57.66191,11.84173,5849.29138446674
"483",321595,"VIPAN","Passenger",8826,"2016-12-13T11:31:05Z","2016-12-20T11:11:05Z",57.66312,11.83516,"2016-12-17T11:29:07Z",57.68047,11.84791,2075.18064055575
"484",321597,"SKARVEN","Passenger",2535,"2016-12-13T11:31:05Z","2016-12-20T08:49:08Z",57.65436,11.80407,"2016-12-17T11:13:07Z",57.66648,11.81299,1449.98862807697
"485",321599,"SILVERTARNAN","Passenger",4444,"2016-12-13T11:31:05Z","2016-12-20T10:29:05Z",57.66155,11.84216,"2016-12-14T02:29:05Z",57.61813,11.80647,5280.59279222039
"486",321601,"FROJA","Passenger",4729,"2016-12-13T11:31:05Z","2016-12-20T11:11:05Z",57.98974,11.69609,"2016-12-16T08:35:05Z",57.98953,11.69569,33.2203036374312
"487",321641,"FJORDSKAR","Passenger",5074,"2016-12-13T11:31:05Z","2016-12-20T11:11:05Z",57.6057,11.79628,"2016-12-14T02:29:05Z",57.62082,11.76727,2413.51472847412
"488",321669,"NAWICA TRAINING SHIP","Pleasure",162,"2016-12-13T11:57:06Z","2016-12-16T00:27:08Z",57.67104,11.84959,"2016-12-13T13:27:09Z",57.67041,11.84201,456.669014744164
"489",321687,"TANKSKAR","Tanker",5138,"2016-12-13T11:31:05Z","2016-12-20T11:11:05Z",57.61846,11.76256,"2016-12-14T02:29:05Z",57.64314,11.83343,5038.59096459777
"490",321697,"CHESS ARCONA400","Pleasure",4729,"2016-12-13T11:31:05Z","2016-12-20T11:11:05Z",57.69859,11.7873,"2016-12-17T23:45:05Z",57.69837,11.78723,24.8417684286925
"491",321701,"EXTREMARIUM","Pleasure",8,"2016-12-13T17:37:06Z","2016-12-14T10:55:06Z",57.70559,11.65843,"2016-12-13T23:43:06Z",57.70559,11.65843,0
"492",321723,"POLSTJARNAN IV","Tug",2272,"2016-12-13T11:31:05Z","2016-12-20T11:11:05Z",57.68392,11.69271,"2016-12-20T10:59:05Z",57.67645,11.74538,3243.14664072541
"493",321727,"MANDALAY","Pleasure",5555,"2016-12-13T11:31:05Z","2016-12-20T11:11:05Z",57.68657,11.88639,"2016-12-19T21:37:08Z",57.68657,11.88625,8.33082393504832
"494",321786,"PIMPIM","Pleasure",718,"2016-12-17T10:29:05Z","2016-12-20T11:11:05Z",57.83287,11.60054,"2016-12-17T12:15:05Z",57.88073,11.603,5329.74260883305
"495",321978,"POLIS 59-3720","Tug",5653,"2016-12-13T11:31:05Z","2016-12-20T11:11:05Z",57.67619,11.75885,"2016-12-19T17:27:05Z",57.66033,11.80551,3291.51584132647
"496",321994,"SVANEN WEST","Passenger",8635,"2016-12-13T11:31:05Z","2016-12-20T11:11:05Z",57.67706,11.67557,"2016-12-17T14:25:05Z",57.67707,11.65862,1008.88989624655
"497",322000,"PENTA 80","Pleasure",4600,"2016-12-13T11:57:06Z","2016-12-20T08:43:13Z",57.76413,11.69696,"2016-12-13T12:49:06Z",57.71004,11.6957,6021.73675065731
"498",322073,"ALV VIRA AV GOTEBORG","Passenger",2753,"2016-12-13T11:31:05Z","2016-12-20T10:59:05Z",57.70457,11.93954,"2016-12-18T00:13:05Z",57.70451,11.93952,6.78426710966151
"499",322150,"DIANA","Passenger",844,"2016-12-14T13:07:06Z","2016-12-19T12:41:05Z",57.68612,11.86356,"2016-12-15T19:09:07Z",57.6852,11.8504,789.785429920735
"500",322167,"VIVI","Passenger",2720,"2016-12-15T19:01:06Z","2016-12-20T10:43:05Z",57.7056,11.69271,"2016-12-20T05:23:05Z",57.70139,11.6742,1196.53887551215
"501",322168,"SVANHILD","Passenger",3300,"2016-12-13T11:31:05Z","2016-12-20T11:11:05Z",57.70887,11.70227,"2016-12-20T10:11:05Z",57.71309,11.68985,875.306109288363
"502",322185,"TRUBADUREN","Passenger",9273,"2016-12-13T11:31:05Z","2016-12-20T11:11:05Z",57.63822,11.81913,"2016-12-14T19:55:07Z",57.6518,11.82213,1522.24671260819
"503",322235,"FRAM","Tanker",2671,"2016-12-13T11:31:05Z","2016-12-20T11:11:05Z",57.60339,11.60567,"2016-12-18T01:33:05Z",57.63798,11.61326,3877.03455183485
"504",322279,"INGEMAR","Tug",2844,"2016-12-13T11:31:05Z","2016-12-20T11:11:05Z",57.6234,11.81051,"2016-12-16T09:57:08Z",57.64155,11.81408,2031.61931157075
"505",322333,"RESCUE LIVBOJEN","Tug",242,"2016-12-15T12:19:09Z","2016-12-19T17:05:08Z",57.61107,11.85215,"2016-12-15T12:31:07Z",57.61055,11.80276,2945.70589821292
"506",322393,"KRISTINA 5","Pleasure",8697,"2016-12-13T11:31:05Z","2016-12-20T11:11:05Z",57.65943,11.85122,"2016-12-13T22:19:08Z",57.65931,11.85128,13.8279347369023
"507",322451,"SEA WIND","Pleasure",4203,"2016-12-13T11:31:05Z","2016-12-20T11:11:05Z",57.67908,11.7929,"2016-12-16T12:55:05Z",57.67896,11.77213,1236.26688332128
"508",322616,"SYLVEIA","Cargo",4639,"2016-12-13T11:31:05Z","2016-12-20T11:11:05Z",57.60033,11.79304,"2016-12-15T13:29:06Z",57.60037,11.79307,4.79888285643927
"509",322667,"ATLANTICA","Pleasure",6291,"2016-12-13T11:31:05Z","2016-12-20T11:11:05Z",57.68664,11.88775,"2016-12-16T23:43:07Z",57.68675,11.88772,12.3745862422565
"510",322687,"NILS","Unspecified",5402,"2016-12-13T11:31:05Z","2016-12-17T14:39:09Z",57.70549,11.94347,"2016-12-14T02:29:07Z",57.68542,11.82417,7440.6574679373
"511",322772,"KBV 475","Tug",233,"2016-12-15T10:45:05Z","2016-12-20T03:43:04Z",57.69167,11.70144,"2016-12-15T11:13:05Z",57.70366,11.67327,2142.35293433807
"512",322861,"SAXKRAN NR 2","Pleasure",9395,"2016-12-13T11:31:05Z","2016-12-20T11:11:05Z",57.691,11.89191,"2016-12-14T02:29:07Z",57.69159,11.82292,4105.30098494509
"513",322884,"HARMONIE II","Pleasure",715,"2016-12-16T08:17:05Z","2016-12-17T08:15:06Z",57.89077,11.68546,"2016-12-17T08:13:05Z",57.89077,11.68546,0
"514",322891,"SJOGRIP","Tug",4135,"2016-12-13T11:31:05Z","2016-12-19T17:53:07Z",57.71592,11.96989,"2016-12-16T15:59:08Z",57.71847,11.97691,504.761098413556
"515",322952,"SENSOR","Unspecified",138,"2016-12-16T08:41:06Z","2016-12-16T12:29:06Z",57.62969,11.78536,"2016-12-16T11:13:05Z",57.62641,11.76635,1190.41257363264
"516",322954,"FOX LUNA","Tanker",930,"2016-12-13T11:31:05Z","2016-12-16T22:57:05Z",57.601,11.67882,"2016-12-13T19:21:05Z",57.61931,11.60118,5058.58799956783
"517",322974,"RESCUE HANS LAURIN","Tug",9380,"2016-12-13T11:31:05Z","2016-12-20T11:11:05Z",57.66143,11.83391,"2016-12-18T14:09:07Z",57.63713,11.81797,2866.86564733279
"518",323000,"OM II AF GOTEBORG","Pleasure",9439,"2016-12-13T11:31:05Z","2016-12-20T11:11:05Z",57.66663,11.84839,"2016-12-14T21:51:09Z",57.66657,11.84831,8.20355819687515
"519",323010,"SILVANA","Passenger",576,"2016-12-13T11:31:05Z","2016-12-14T14:19:05Z",57.68144,11.64527,"2016-12-13T12:51:05Z",57.68147,11.64524,3.78689597285861
"520",323064,"CRUM","Tug",4726,"2016-12-13T11:31:05Z","2016-12-20T11:11:05Z",57.67721,11.65609,"2016-12-14T11:03:06Z",57.67876,11.64534,662.696624428905
"521",323091,"0","Unspecified",25,"2016-12-19T08:25:05Z","2016-12-19T08:51:08Z",57.7209,11.98238,"2016-12-19T08:27:07Z",57.72177,11.98145,111.517803779683
"522",323198,"TOOTIKI","Pleasure",6533,"2016-12-13T11:31:05Z","2016-12-20T11:11:05Z",57.65703,11.67826,"2016-12-16T09:05:05Z",57.65882,11.66803,640.985168123735
"523",323258,"EBBA HARD","Pleasure",4729,"2016-12-13T11:31:05Z","2016-12-20T11:11:05Z",57.70789,11.65943,"2016-12-19T23:59:05Z",57.70778,11.6594,12.3744360381034
"524",323271,"EMM XXIII M23","Pleasure",9421,"2016-12-13T11:31:05Z","2016-12-20T11:11:05Z",57.72108,11.98115,"2016-12-16T23:17:08Z",57.72092,11.98135,21.4150625724681
"525",323289,"CARL MICHAEL BELLMAN","Passenger",2498,"2016-12-13T12:07:06Z","2016-12-20T10:45:05Z",57.68652,11.87643,"2016-12-19T12:55:04Z",57.70021,11.9236,3193.45531873932
"526",323301,"ST ERIK","Passenger",9302,"2016-12-13T11:31:05Z","2016-12-20T11:11:05Z",57.68629,11.87734,"2016-12-17T15:09:07Z",57.68953,11.89931,1356.13762848818
"527",323316,"LA DOLCE VITA","Pleasure",510,"2016-12-13T11:31:05Z","2016-12-14T12:07:05Z",57.7335,11.65878,"2016-12-13T11:35:05Z",57.73351,11.65872,3.735454196214
"528",323355,"AMANDA","Cargo",1126,"2016-12-13T11:31:05Z","2016-12-20T11:11:05Z",57.60273,11.78782,"2016-12-20T09:11:05Z",57.62234,11.80926,2529.76611173683
"529",323609,"GG 668 SILVER","Fishing",3864,"2016-12-13T11:31:05Z","2016-12-20T11:11:05Z",57.62911,11.82257,"2016-12-16T15:43:07Z",57.64779,11.82975,2123.00112922783
"530",323624,"BATMAN 7","Tug",6,"2016-12-17T03:05:04Z","2016-12-17T03:09:07Z",57.71906,11.9775,"2016-12-17T03:09:05Z",57.71906,11.9775,0
"531",323659,"JETTEN GBG STAD VA","Cargo",3466,"2016-12-13T11:31:05Z","2016-12-20T09:47:08Z",57.60263,11.79241,"2016-12-13T14:21:05Z",57.65103,11.79379,5388.49117579613
"532",323787,"FROG CYGNUS","Unspecified",2323,"2016-12-13T11:31:05Z","2016-12-16T19:51:07Z",57.72092,11.98229,"2016-12-14T01:15:05Z",57.68151,11.83942,9563.75958537764
"533",323833,"ASKHOLMEN","Tug",9134,"2016-12-13T11:31:05Z","2016-12-20T11:11:05Z",57.68569,11.89121,"2016-12-15T12:45:09Z",57.68576,11.8914,13.7315407775367
"534",323838,"YANIKI IV","Pleasure",7639,"2016-12-13T11:31:08Z","2016-12-20T11:11:05Z",57.68073,11.85396,"2016-12-17T10:11:08Z",57.683,11.86249,567.066596056709
"535",323857,"POLIS 593790","High Special",12,"2016-12-20T09:37:05Z","2016-12-20T10:57:05Z",57.68141,11.87037,"2016-12-20T10:29:05Z",57.68133,11.8709,32.7757136208605
"536",323930,"MARY SWE","Pleasure",698,"2016-12-17T13:51:05Z","2016-12-18T13:11:04Z",57.92041,11.60999,"2016-12-18T13:03:05Z",57.91661,11.60639,473.545492822563
"537",323964,"RIVO","High Special",1772,"2016-12-13T11:31:05Z","2016-12-20T11:11:05Z",57.60096,11.79172,"2016-12-13T16:47:06Z",57.66149,11.84175,7368.37814411255
"538",323966,"VALO","High Special",3293,"2016-12-13T13:07:06Z","2016-12-20T11:11:05Z",57.6626,11.83972,"2016-12-14T00:27:08Z",57.61596,11.79779,5761.7649690945
"539",323975,"DIRTY","Tug",2684,"2016-12-15T13:13:05Z","2016-12-17T10:23:08Z",57.70601,11.66452,"2016-12-15T13:39:06Z",57.6799,11.86126,12060.5921013722
"540",324024,"MARISSA","Pleasure",828,"2016-12-15T11:53:07Z","2016-12-16T15:31:05Z",57.69537,11.66495,"2016-12-15T15:23:06Z",57.69543,11.66487,8.20136234254626
"541",324029,"GISELE","Pleasure",1578,"2016-12-17T08:05:05Z","2016-12-19T13:05:05Z",57.70028,11.78831,"2016-12-17T12:27:06Z",57.70065,11.788,45.1275214446846
"542",324125,"FLORO/HAMBURGSUND","Pleasure",20,"2016-12-18T12:01:06Z","2016-12-18T12:39:06Z",57.60063,11.79214,"2016-12-18T12:03:05Z",57.60022,11.79387,112.832751196138
"543",324190,"GG451 MIA","Fishing",361,"2016-12-14T10:09:05Z","2016-12-15T09:15:05Z",57.69855,11.6407,"2016-12-15T09:13:05Z",57.69855,11.6407,0
"544",324200,"SOUND PROVIDER","Tug",2358,"2016-12-13T11:31:05Z","2016-12-20T11:11:05Z",57.60955,11.6032,"2016-12-19T12:07:13Z",57.76711,11.60489,17539.7872384209
"545",324232,"RODSKAR GG430","Fishing",137,"2016-12-13T20:43:05Z","2016-12-20T08:37:05Z",57.6466,11.85734,"2016-12-14T00:23:06Z",57.60331,11.79288,6163.27695909827
"546",324288,"GOTE II","Tug",722,"2016-12-14T15:15:05Z","2016-12-20T10:43:05Z",57.63423,11.79288,"2016-12-14T19:55:05Z",57.68,11.85214,6197.99241137424
"547",324459,"11-00","Tug",2872,"2016-12-14T13:25:05Z","2016-12-17T11:39:07Z",57.62947,11.77787,"2016-12-14T15:21:05Z",57.64068,11.80609,2094.07530139099
"548",324465,"SEACURE","Tug",3972,"2016-12-13T11:31:05Z","2016-12-19T15:15:05Z",57.76966,11.62594,"2016-12-18T08:11:05Z",57.79236,11.61003,2697.61648118141
"549",324466,"FATBOY","Tug",863,"2016-12-15T12:13:05Z","2016-12-19T21:25:05Z",57.68089,11.80393,"2016-12-19T14:09:04Z",57.67856,11.75736,2783.82198769466
"550",324470,"BOATMAN 9","Tug",7593,"2016-12-13T11:31:05Z","2016-12-20T10:11:05Z",57.68832,11.88379,"2016-12-19T12:43:08Z",57.69125,11.90032,1036.21673768588
"551",324477,"JEWEL","Pleasure",9436,"2016-12-13T11:31:05Z","2016-12-20T11:11:05Z",57.61911,11.92572,"2016-12-15T03:01:08Z",57.61923,11.92581,14.3956126041931
"552",324534,"GG1206 DANO","Fishing",4782,"2016-12-13T11:31:08Z","2016-12-20T10:59:07Z",57.63395,11.82328,"2016-12-17T22:17:07Z",57.64334,11.83613,1295.71171339276
"553",324559,"SKRAALLAN","Fishing",900,"2016-12-13T11:31:05Z","2016-12-14T02:29:07Z",57.71763,11.97189,"2016-12-14T02:29:05Z",57.71763,11.97189,0
"554",324603,"LOUISE","Pleasure",2108,"2016-12-14T10:09:05Z","2016-12-20T11:11:05Z",57.60969,11.85522,"2016-12-19T13:55:07Z",57.60544,11.89251,2273.57894104723
"555",324664,"KBV 316","Tug",2553,"2016-12-13T13:39:06Z","2016-12-17T16:53:05Z",57.65024,11.61424,"2016-12-14T15:01:05Z",57.74836,11.61581,10923.0676879677
"556",324703,"ISADORA","Pleasure",4454,"2016-12-13T11:31:05Z","2016-12-19T12:43:05Z",57.62461,11.8032,"2016-12-17T16:25:08Z",57.66204,11.84554,4870.75165609069
"557",324714,"GG102 MAUDAN","Fishing",4165,"2016-12-13T13:45:07Z","2016-12-20T09:07:05Z",57.69856,11.64054,"2016-12-14T02:29:05Z",57.71507,11.60402,2845.19715785046
"558",324760,"GG292 MARTINA","Fishing",4729,"2016-12-13T11:31:05Z","2016-12-20T11:11:05Z",57.77287,11.61638,"2016-12-15T23:47:06Z",57.77292,11.61625,9.51510608180154
"559",324986,"AQUILA","Pleasure",7183,"2016-12-13T11:31:05Z","2016-12-20T11:11:05Z",57.60107,11.79426,"2016-12-14T02:29:05Z",57.662,11.84525,7432.3173136305
"560",324990,"PAULA","Pleasure",4729,"2016-12-13T11:31:05Z","2016-12-20T11:11:05Z",57.70009,11.9183,"2016-12-15T08:55:06Z",57.70039,11.91803,37.0570259823444
"561",325042,"HIFLYER","Pleasure",4557,"2016-12-13T11:31:05Z","2016-12-20T11:11:05Z",57.70553,11.65819,"2016-12-14T16:59:05Z",57.70541,11.65817,13.411193871914
"562",325070,"BLUE ADVENTURE","Pleasure",9443,"2016-12-13T11:31:05Z","2016-12-20T11:11:05Z",57.7111,11.9493,"2016-12-16T02:49:08Z",57.71135,11.94941,28.5882673066286
"563",325071,"POLIS 59-3780","Tug",33,"2016-12-19T12:43:05Z","2016-12-19T14:01:05Z",57.68171,11.87113,"2016-12-19T13:59:04Z",57.68171,11.87113,0
"564",325147,"GG 65 CORIOLA","Fishing",618,"2016-12-14T10:09:05Z","2016-12-15T06:45:05Z",57.70755,11.65801,"2016-12-15T06:43:05Z",57.70755,11.65801,0
"565",325269,"RESCUE MARIANNE BRAT","Tug",255,"2016-12-14T10:09:05Z","2016-12-19T11:03:05Z",57.7095,11.66683,"2016-12-17T12:25:05Z",57.73567,11.66483,2915.6561777269
"566",325291,"PENTA 60","Pleasure",1855,"2016-12-13T11:31:05Z","2016-12-16T09:03:05Z",57.69131,11.76908,"2016-12-14T23:53:05Z",57.69141,11.76896,13.2248439358796
"567",325546,"GG 690 VINGASAND","Fishing",1961,"2016-12-13T11:31:05Z","2016-12-20T10:45:05Z",57.62533,11.82135,"2016-12-19T10:35:08Z",57.63206,11.82187,749.820954823311
"568",325635,"PENTA 81","Pleasure",4549,"2016-12-13T11:31:05Z","2016-12-20T11:11:05Z",57.82878,11.60581,"2016-12-18T08:51:05Z",57.9337,11.60542,11679.6637829478
"569",325679,"RON","Fishing",4634,"2016-12-13T11:31:05Z","2016-12-20T11:11:05Z",57.64564,11.85814,"2016-12-18T02:55:05Z",57.64551,11.8581,14.6664117433201
"570",325703,"BISCAYA GG34","Fishing",43,"2016-12-20T08:19:05Z","2016-12-20T11:11:05Z",57.66939,11.62202,"2016-12-20T08:23:05Z",57.67314,11.62985,625.73003022638
"571",325770,"GKSS-ONLINE","Tug",3018,"2016-12-15T07:03:05Z","2016-12-18T14:11:08Z",57.63538,11.8303,"2016-12-16T08:09:09Z",57.66776,11.84953,3782.13554363611
"572",325888,"SVANVIK","Fishing",4729,"2016-12-13T11:31:05Z","2016-12-20T11:11:05Z",57.67317,11.66446,"2016-12-14T20:29:05Z",57.67327,11.66443,11.274284627416
"573",325995,"STORMFAGEL","Pleasure",4729,"2016-12-13T11:31:05Z","2016-12-20T11:11:05Z",57.70518,11.66089,"2016-12-16T00:15:05Z",57.70513,11.66091,5.69166058405336
"574",326015,"MARELD","Pleasure",1225,"2016-12-19T12:39:05Z","2016-12-20T11:11:05Z",57.66803,11.84517,"2016-12-19T12:55:04Z",57.66805,11.84517,2.22638981617124
"575",326054,"GREAT ESCAPE","Pleasure",2800,"2016-12-15T15:17:06Z","2016-12-17T14:07:08Z",57.71067,11.95075,"2016-12-15T21:03:08Z",57.71063,11.95077,4.60887672857403
"576",326111,"OLJAREN","Tanker",3544,"2016-12-15T04:49:06Z","2016-12-20T11:11:05Z",57.60109,11.82034,"2016-12-18T10:31:08Z",57.60519,11.61014,12545.2197731737
"577",326263,"TOFTE","Tug",4724,"2016-12-13T11:31:05Z","2016-12-20T11:11:05Z",57.73233,11.99434,"2016-12-18T19:37:05Z",57.69865,11.99432,3749.24063850435
"578",326371,"BMJ WINDY 37","Pleasure",982,"2016-12-13T13:55:06Z","2016-12-14T13:53:08Z",57.63765,11.87053,"2016-12-14T13:53:05Z",57.63765,11.87053,0
"579",326432,"RUNAVIK GG 44","Fishing",1068,"2016-12-14T14:33:07Z","2016-12-20T10:03:06Z",54.7969,18.42219,"2016-12-15T17:37:08Z",54.79561,18.42839,423.000703932425
"580",326438,"ALVSBORG","Fishing",113,"2016-12-19T05:09:05Z","2016-12-19T10:47:05Z",57.64545,11.858,"2016-12-19T06:27:05Z",57.65069,11.83671,1395.9413695585
"581",326451,"RANDI","Fishing",3267,"2016-12-13T11:31:05Z","2016-12-18T19:03:05Z",57.72477,11.66472,"2016-12-18T18:43:05Z",57.73264,11.66352,878.982922805003
"582",326456,"DANAFJORD","Fishing",2985,"2016-12-13T11:31:05Z","2016-12-20T11:11:05Z",57.67349,11.66452,"2016-12-17T07:33:05Z",57.67466,11.66486,131.806922047215
"583",326471,"VALOSKAR","Fishing",4727,"2016-12-13T11:31:05Z","2016-12-20T11:11:05Z",57.70681,11.66157,"2016-12-17T21:31:05Z",57.7067,11.66161,12.4740836004564
"584",326481,"TOR-ON","Fishing",16,"2016-12-14T00:33:05Z","2016-12-19T21:33:05Z",57.71599,11.9586,"2016-12-19T14:39:06Z",57.71615,11.95823,28.305530133761
"585",326486,"TORLAND","Fishing",4729,"2016-12-13T11:31:05Z","2016-12-20T11:11:05Z",57.71657,11.95847,"2016-12-16T20:17:05Z",57.7167,11.9584,15.0581262419791
"586",326491,"PROSPERO","Tanker",2923,"2016-12-15T11:55:06Z","2016-12-17T13:33:06Z",57.6049,11.64158,"2016-12-17T13:27:04Z",57.60313,11.61802,1418.89817077406
"587",326496,"SUNNANLAND","Fishing",6967,"2016-12-13T11:39:05Z","2016-12-20T11:11:05Z",57.64503,11.85826,"2016-12-18T14:47:06Z",57.64485,11.85847,23.6223737392506
"588",326598,"ANGON","Tanker",3949,"2016-12-13T17:59:07Z","2016-12-20T03:57:05Z",57.67043,11.78883,"2016-12-14T02:29:05Z",57.69172,11.84372,4035.92219789897
"589",326642,"STORMCO","Unspecified",9444,"2016-12-13T11:31:05Z","2016-12-20T11:11:05Z",57.72544,11.98736,"2016-12-14T02:29:07Z",57.72543,11.98743,4.30727948492134
"590",326665,"RAMANTENN","Unspecified",9444,"2016-12-13T11:31:05Z","2016-12-20T11:11:05Z",57.68105,11.90576,"2016-12-20T05:59:08Z",57.68118,11.90571,14.7743132387984
"591",326697,"WWW.SSBILBEHOR.SE","Pleasure",9444,"2016-12-13T11:31:05Z","2016-12-20T11:11:05Z",57.64104,11.95973,"2016-12-13T23:47:09Z",57.64092,11.95983,14.6268194294807
"592",326700,"NAUTIC CENTER DEMO","Fishing",9444,"2016-12-13T11:31:05Z","2016-12-20T11:11:05Z",57.6634,11.89193,"2016-12-18T12:21:08Z",57.66337,11.89192,3.39225210336816
"593",326702,"OCKERO MARITIME 1","Tug",1798,"2016-12-13T11:31:05Z","2016-12-19T13:33:05Z",57.66461,11.68068,"2016-12-18T11:11:08Z",57.65945,11.63523,2766.65920712941
"594",326703,"OCKERO MARITIME 2","Tug",900,"2016-12-13T11:31:05Z","2016-12-15T15:03:05Z",57.73568,11.66413,"2016-12-14T14:47:05Z",57.72351,11.66417,1354.76028896096
"595",326735,"K10","Tug",7353,"2016-12-13T11:31:05Z","2016-12-20T11:11:05Z",57.6884,11.85577,"2016-12-17T10:45:07Z",57.69098,11.85578,287.204902591152
"596",326821,"ATLANTIC CARTIER","Cargo",986,"2016-12-19T04:03:05Z","2016-12-19T21:45:13Z",57.63336,11.69312,"2016-12-19T04:25:06Z",57.64611,11.70513,1589.51152682797
"597",326898,"STENA FORERUNNER","Cargo",299,"2016-12-18T06:15:02Z","2016-12-18T15:25:01Z",54.676,18.94767,"2016-12-18T15:11:02Z",54.75467,18.84233,11071.3965148314
"598",326946,"ROSSO","Fishing",3555,"2016-12-14T19:43:06Z","2016-12-20T10:59:05Z",57.76882,11.60878,"2016-12-19T03:23:05Z",57.74811,11.60605,2311.12045494257
"599",326947,"INGUN","Fishing",3163,"2016-12-15T00:33:06Z","2016-12-19T05:19:05Z",57.69784,11.915,"2016-12-15T06:15:08Z",57.69016,11.89695,1372.62123507516
"600",326950,"VINGAFJORD GG-173","Fishing",3880,"2016-12-15T01:15:06Z","2016-12-20T11:11:05Z",57.67876,11.77928,"2016-12-15T04:27:05Z",57.67751,11.76118,1086.25657503605
"601",326954,"SVANEN","Fishing",4073,"2016-12-13T11:31:05Z","2016-12-20T11:11:05Z",57.76917,11.60111,"2016-12-18T21:25:05Z",57.74836,11.60397,2322.77678381956
"602",326955,"GOTTSKAR","Fishing",2725,"2016-12-13T22:55:05Z","2016-12-19T22:29:04Z",57.71786,11.66545,"2016-12-19T21:41:05Z",57.70826,11.6679,1078.55128934993
"603",327030,"RAMONA","Tanker",2050,"2016-12-15T06:03:02Z","2016-12-17T02:27:02Z",54.4653,18.99847,"2016-12-17T00:33:02Z",54.77287,18.99142,34241.5510148613
"604",327052,"GLITTFORS","Fishing",1494,"2016-12-13T14:33:05Z","2016-12-20T11:11:05Z",57.74045,11.60468,"2016-12-19T04:25:06Z",57.60073,11.66888,16016.2585622274
"605",327056,"VERA C","Fishing",272,"2016-12-13T16:51:06Z","2016-12-19T23:51:05Z",57.60025,11.81978,"2016-12-13T19:43:07Z",57.60386,11.73032,5350.91672505261
"606",327132,"GOTHEBORG","Tug",9377,"2016-12-13T11:31:05Z","2016-12-20T11:11:05Z",57.7006,11.91888,"2016-12-13T21:17:08Z",57.70055,11.91897,7.72266824815424
"607",327147,"FOX SUNRISE","Tanker",1522,"2016-12-15T08:05:06Z","2016-12-17T00:07:06Z",57.69793,11.91591,"2016-12-16T12:55:08Z",57.68825,11.88654,2052.91903701007
"608",327150,"AHLMA","Fishing",108,"2016-12-20T07:13:04Z","2016-12-20T09:47:08Z",57.65745,11.82032,"2016-12-20T07:57:07Z",57.65135,11.83575,1142.65101921236
"609",327175,"NORDEN","Tanker",2446,"2016-12-15T11:39:07Z","2016-12-19T04:51:05Z",57.60086,11.60686,"2016-12-16T15:43:05Z",57.60181,11.65823,3065.82792651607
"610",327198,"DANA","Tanker",4800,"2016-12-13T11:31:05Z","2016-12-20T10:43:07Z",57.74813,11.61588,"2016-12-15T05:23:06Z",57.92028,11.60685,19171.1208636585
"611",327250,"THULELAND","Cargo",1111,"2016-12-13T11:31:05Z","2016-12-14T13:55:05Z",57.65663,11.74896,"2016-12-14T13:31:05Z",57.65178,11.71843,1896.79739860662
"612",327293,"FAUST","Cargo",1444,"2016-12-14T21:01:06Z","2016-12-15T21:47:05Z",57.66729,11.78699,"2016-12-15T21:11:05Z",57.65933,11.76567,1548.14641551934
"613",327374,"KBV 001","Tug",1612,"2016-12-14T10:09:05Z","2016-12-15T14:19:07Z",57.68859,11.89151,"2016-12-14T13:07:08Z",57.69227,11.90352,823.684435301293
"614",327375,"KBV 497","Tug",661,"2016-12-14T10:09:05Z","2016-12-15T08:11:05Z",57.66702,11.79772,"2016-12-15T08:09:06Z",57.66702,11.79772,0
"615",327376,"KBV 494","Tug",1245,"2016-12-15T08:55:06Z","2016-12-16T10:05:08Z",57.71445,11.95784,"2016-12-15T08:59:05Z",57.71406,11.95755,46.7136666557604
"616",327445,"GANTHI","Fishing",356,"2016-12-13T17:15:05Z","2016-12-20T05:33:05Z",57.60079,11.79128,"2016-12-19T05:27:05Z",57.60175,11.60523,11097.6275394549
"617",327464,"ICEBEAM","Tug",623,"2016-12-19T22:47:13Z","2016-12-20T11:11:05Z",57.68303,11.85268,"2016-12-19T23:37:07Z",57.68615,11.87203,1202.74075598577
"618",327475,"WISBY WAVE","Tanker",1835,"2016-12-14T10:09:05Z","2016-12-15T20:15:06Z",57.63855,11.69439,"2016-12-15T19:59:04Z",57.62356,11.6811,1847.1124265828
"619",327492,"VASTERLAND","Fishing",628,"2016-12-15T01:53:05Z","2016-12-20T11:11:05Z",57.67639,11.74027,"2016-12-20T03:03:04Z",57.67628,11.76015,1183.37443406125
"620",327507,"STENA GERMANICA","Passenger",2376,"2016-12-13T11:31:05Z","2016-12-19T18:41:05Z",57.66095,11.77369,"2016-12-19T07:35:05Z",57.67359,11.79963,2089.27142439456
"621",327518,"KBV 032","Tug",1389,"2016-12-13T13:31:05Z","2016-12-17T09:51:05Z",57.99781,11.70603,"2016-12-13T13:43:05Z",57.74871,11.60501,28367.2127638435
"622",327562,"STENA SCANDINAVICA","Passenger",1948,"2016-12-14T10:09:05Z","2016-12-20T11:11:05Z",57.65953,11.76765,"2016-12-18T18:25:05Z",57.65563,11.74008,1698.31787724443
"623",327566,"CLIPPERTON","Fishing",5,"2016-12-14T16:23:05Z","2016-12-14T16:31:05Z",57.605,11.61267,"2016-12-14T16:25:05Z",57.603,11.62517,778.051754588769
"624",327673,"CLIPPFJORD","Fishing",4566,"2016-12-13T11:31:05Z","2016-12-20T11:11:05Z",57.60124,11.79403,"2016-12-19T07:31:05Z",57.6004,11.7906,224.944500546456
"625",327678,"BISON","Tug",310,"2016-12-13T12:25:07Z","2016-12-20T03:11:04Z",57.99487,11.7555,"2016-12-17T09:31:04Z",57.97403,11.73161,2714.72299501633
"626",327685,"IDA H","Cargo",266,"2016-12-16T11:57:04Z","2016-12-16T16:29:09Z",57.91244,12.0521,"2016-12-16T15:43:07Z",57.93297,12.067,2449.26628404507
"627",327745,"U/F ASTERIX","Tug",37,"2016-12-20T06:59:05Z","2016-12-20T09:07:07Z",57.6445,11.84489,"2016-12-20T07:25:07Z",57.64404,11.85719,734.563520135705
